$GPRMC,212338.000,A,4339.5346,N,07922.7625,W,0.00,334.08,270417,,,A*7F
$GPVTG,334.08,T,,M,0.00,N,0.00,K,A*31
$GPGGA,212339.000,4339.5346,N,07922.7625,W,1,8,1.11,102.4,M,-35.1,M,,*63
$GPGLL,4339.5346,N,07922.7625,W,212339.000,A,A*42
$GPGSA,A,3,30,11,28,01,07,08,17,13,,,,,2.15,1.11,1.84*0B
$GPGSV,4,1,13,30,66,231,45,11,64,085,43,28,59,313,44,01,55,124,40*71
$GPGSV,4,2,13,07,39,174,38,51,32,217,37,17,30,244,40,08,29,057,29*75
$GPGSV,4,3,13,13,18,296,17,19,07,239,15,22,05,116,18,15,03,325,*76
$GPGSV,4,4,13,10,01,029,13*42
$GPRMC,212339.000,A,4339.5346,N,07922.7625,W,0.00,334.08,270417,,,A*7E
$GPVTG,334.08,T,,M,0.00,N,0.00,K,A*31
$GPGGA,212340.000,4339.5346,N,07922.7625,W,1,8,1.07,102.4,M,-35.1,M,,*6A
$GPGLL,4339.5346,N,07922.7625,W,212340.000,A,A*4C
$GPGSA,A,3,30,11,28,01,07,08,17,13,,,,,1.38,1.07,0.88*0D
$GPGSV,4,1,13,30,66,231,46,11,64,085,43,28,59,313,44,01,55,124,40*72
$GPGSV,4,2,13,07,39,174,38,51,32,217,38,17,30,244,40,08,29,057,30*72
$GPGSV,4,3,13,13,18,296,17,19,07,239,15,22,05,116,18,15,03,325,*76
$GPGSV,4,4,13,10,01,029,14*45
$GPRMC,212340.000,A,4339.5346,N,07922.7625,W,0.00,334.08,270417,,,A*70
$GPVTG,334.08,T,,M,0.00,N,0.00,K,A*31
$GPGGA,212341.000,4339.5346,N,07922.7625,W,1,8,1.07,102.4,M,-35.1,M,,*6B
$GPGLL,4339.5346,N,07922.7625,W,212341.000,A,A*4D
$GPGSA,A,3,30,11,28,01,07,08,17,13,,,,,1.38,1.07,0.88*0D
$GPGSV,4,1,13,30,66,230,46,11,64,085,43,28,59,313,44,01,55,124,40*73
$GPGSV,4,2,13,07,39,174,37,51,32,217,38,17,30,244,40,08,29,057,30*7D
$GPGSV,4,3,13,13,18,296,19,19,07,239,15,22,05,116,17,15,03,325,*77
$GPGSV,4,4,13,10,01,029,14*45
$GPRMC,212341.000,A,4339.5346,N,07922.7625,W,0.00,334.08,270417,,,A*71
$GPVTG,334.08,T,,M,0.00,N,0.00,K,A*31
$GPGGA,212342.000,4339.5346,N,07922.7625,W,1,8,1.11,102.4,M,-35.1,M,,*6F
$GPGLL,4339.5346,N,07922.7625,W,212342.000,A,A*4E
$GPGSA,A,3,30,11,28,01,07,08,17,13,,,,,2.15,1.11,1.84*0B
$GPGSV,4,1,13,30,66,230,46,11,64,085,43,28,59,313,44,01,55,124,40*73
$GPGSV,4,2,13,07,39,174,37,51,32,217,38,17,30,244,40,08,29,057,30*7D
$GPGSV,4,3,13,13,18,296,20,19,07,239,15,22,05,116,16,15,03,325,*7C
$GPGSV,4,4,13,10,01,029,14*45
$GPRMC,212342.000,A,4339.5346,N,07922.7625,W,0.00,334.08,270417,,,A*72
$GPVTG,334.08,T,,M,0.00,N,0.00,K,A*31
$GPGGA,212343.000,4339.5346,N,07922.7625,W,1,8,1.07,102.4,M,-35.1,M,,*69
$GPGLL,4339.5346,N,07922.7625,W,212343.000,A,A*4F
$GPGSA,A,3,30,11,28,01,07,08,17,13,,,,,1.38,1.07,0.88*0D
$GPGSV,4,1,13,30,66,230,46,11,64,085,43,28,59,313,44,01,55,124,40*73
$GPGSV,4,2,13,07,39,174,37,51,32,217,38,17,30,244,40,08,29,057,29*75
$GPGSV,4,3,13,13,18,296,20,19,07,239,14,22,05,116,15,15,03,325,*7E
$GPGSV,4,4,13,10,01,029,14*45
$GPRMC,212343.000,A,4339.5346,N,07922.7625,W,0.00,334.08,270417,,,A*73
$GPVTG,334.08,T,,M,0.00,N,0.00,K,A*31
$GPGGA,212344.000,4339.5346,N,07922.7625,W,1,8,1.07,102.4,M,-35.1,M,,*6E
$GPGLL,4339.5346,N,07922.7625,W,212344.000,A,A*48
$GPGSA,A,3,30,11,28,01,07,08,17,13,,,,,1.38,1.07,0.88*0D
$GPGSV,4,1,13,30,66,230,46,11,64,085,43,28,59,313,44,01,55,124,40*73
$GPGSV,4,2,13,07,39,174,37,51,32,217,38,17,30,244,40,08,29,057,29*75
$GPGSV,4,3,13,13,18,296,24,19,07,239,14,22,05,116,15,15,03,325,*7A
$GPGSV,4,4,13,10,01,029,15*44
$GPRMC,212344.000,A,4339.5346,N,07922.7625,W,0.00,334.08,270417,,,A*74
$GPVTG,334.08,T,,M,0.00,N,0.00,K,A*31
$GPGGA,212345.000,4339.5346,N,07922.7625,W,1,8,1.07,102.4,M,-35.1,M,,*6F
$GPGLL,4339.5346,N,07922.7625,W,212345.000,A,A*49
$GPGSA,A,3,30,11,28,01,07,08,17,13,,,,,1.38,1.07,0.88*0D
$GPGSV,4,1,13,30,66,230,46,11,64,085,43,28,59,313,44,01,55,124,40*73
$GPGSV,4,2,13,07,39,174,37,51,32,217,39,17,30,244,40,08,29,057,28*75
$GPGSV,4,3,13,13,18,296,24,19,07,239,14,22,05,116,15,15,03,325,*7A
$GPGSV,4,4,13,10,01,029,14*45
$GPRMC,212345.000,A,4339.5346,N,07922.7625,W,0.00,334.08,270417,,,A*75
$GPVTG,334.08,T,,M,0.00,N,0.00,K,A*31
$GPGGA,212346.000,4339.5346,N,07922.7625,W,1,8,1.07,102.4,M,-35.1,M,,*6C
$GPGLL,4339.5346,N,07922.7625,W,212346.000,A,A*4A
$GPGSA,A,3,30,11,28,01,07,08,17,13,,,,,1.38,1.07,0.88*0D
$GPGSV,4,1,13,30,66,230,47,11,64,085,43,28,59,313,44,01,55,124,40*72
$GPGSV,4,2,13,07,39,174,37,51,32,217,39,17,30,244,40,08,29,057,27*7A
$GPGSV,4,3,13,13,18,296,22,19,07,239,14,22,05,116,16,15,03,325,*7F
$GPGSV,4,4,13,10,01,029,14*45
$GPRMC,212346.000,A,4339.5346,N,07922.7625,W,0.00,334.08,270417,,,A*76
$GPVTG,334.08,T,,M,0.00,N,0.00,K,A*31
$GPGGA,212347.000,4339.5346,N,07922.7625,W,1,8,1.07,102.4,M,-35.1,M,,*6D
$GPGLL,4339.5346,N,07922.7625,W,212347.000,A,A*4B
$GPGSA,A,3,30,11,28,01,07,08,17,13,,,,,1.38,1.07,0.88*0D
$GPGSV,4,1,13,30,66,230,47,11,64,085,43,28,59,313,44,01,55,123,40*75
$GPGSV,4,2,13,07,39,174,37,51,32,217,39,17,30,244,40,08,29,057,26*7B
$GPGSV,4,3,13,13,18,296,23,19,07,239,14,22,05,116,17,15,03,325,*7F
$GPGSV,4,4,13,10,01,029,*40
$GPRMC,212347.000,A,4339.5346,N,07922.7625,W,0.00,334.08,270417,,,A*77
$GPVTG,334.08,T,,M,0.00,N,0.00,K,A*31
$GPGGA,212348.000,4339.5346,N,07922.7625,W,1,8,1.07,102.4,M,-35.1,M,,*62
$GPGLL,4339.5346,N,07922.7625,W,212348.000,A,A*44
$GPGSA,A,3,30,11,28,01,07,08,17,13,,,,,1.38,1.07,0.88*0D
$GPGSV,4,1,13,30,66,230,47,11,64,085,43,28,59,313,44,01,55,123,40*75
$GPGSV,4,2,13,07,39,174,37,51,32,217,39,17,30,244,40,08,29,057,24*79
$GPGSV,4,3,13,13,18,296,23,19,07,239,14,22,05,116,17,15,03,325,*7F
$GPGSV,4,4,13,10,01,029,*40
$GPRMC,212348.000,A,4339.5346,N,07922.7625,W,0.00,334.08,270417,,,A*78
$GPVTG,334.08,T,,M,0.00,N,0.00,K,A*31
$GPGGA,212349.000,4339.5346,N,07922.7625,W,1,8,1.07,102.4,M,-35.1,M,,*63
$GPGLL,4339.5346,N,07922.7625,W,212349.000,A,A*45
$GPGSA,A,3,30,11,28,01,07,08,17,13,,,,,1.38,1.07,0.88*0D
$GPGSV,4,1,13,30,66,230,47,11,64,085,43,28,59,313,44,01,55,123,40*75
$GPGSV,4,2,13,07,39,174,36,51,32,217,38,17,30,244,39,08,29,057,26*75
$GPGSV,4,3,13,13,18,296,24,19,07,239,14,22,05,116,17,15,03,325,*78
$GPGSV,4,4,13,10,01,029,*40
$GPRMC,212349.000,A,4339.5346,N,07922.7625,W,0.00,334.08,270417,,,A*79
$GPVTG,334.08,T,,M,0.00,N,0.00,K,A*31
$GPGGA,212350.000,4339.5346,N,07922.7625,W,1,7,1.25,102.4,M,-35.1,M,,*64
$GPGLL,4339.5346,N,07922.7625,W,212350.000,A,A*4D
$GPGSA,A,3,30,11,28,01,07,08,17,,,,,,1.55,1.25,0.91*0C
$GPGSV,4,1,13,30,66,230,46,11,64,085,43,28,59,313,44,01,55,123,40*74
$GPGSV,4,2,13,07,39,174,35,51,32,217,38,17,30,244,40,08,29,057,24*7A
$GPGSV,4,3,13,13,18,296,,19,07,239,14,22,05,116,18,15,03,325,*71
$GPGSV,4,4,13,10,01,029,*40
$GPRMC,212350.000,A,4339.5346,N,07922.7625,W,0.00,334.08,270417,,,A*71
$GPVTG,334.08,T,,M,0.00,N,0.00,K,A*31
$GPGGA,212351.000,4339.5346,N,07922.7625,W,1,7,1.25,102.4,M,-35.1,M,,*65
$GPGLL,4339.5346,N,07922.7625,W,212351.000,A,A*4C
$GPGSA,A,3,30,11,28,01,07,08,17,,,,,,1.55,1.25,0.91*0C
$GPGSV,4,1,13,30,66,230,45,11,64,085,43,28,59,313,44,01,55,123,40*77
$GPGSV,4,2,13,07,39,174,36,51,32,217,38,17,30,244,42,08,29,057,31*7F
$GPGSV,4,3,13,13,18,296,,19,07,239,14,22,05,116,19,15,03,325,*70
$GPGSV,4,4,13,10,01,029,*40
$GPRMC,212351.000,A,4339.5346,N,07922.7625,W,0.00,334.08,270417,,,A*70
$GPVTG,334.08,T,,M,0.00,N,0.00,K,A*31
$GPGGA,212352.000,4339.5346,N,07922.7625,W,1,8,1.07,102.4,M,-35.1,M,,*69
$GPGLL,4339.5346,N,07922.7625,W,212352.000,A,A*4F
$GPGSA,A,3,30,11,28,01,07,08,17,13,,,,,1.38,1.07,0.88*0D
$GPGSV,4,1,13,30,66,230,44,11,64,085,43,28,59,313,44,01,55,123,40*76
$GPGSV,4,2,13,07,39,174,38,51,32,217,39,17,30,244,43,08,29,057,31*71
$GPGSV,4,3,13,13,18,296,28,19,07,239,,22,05,116,19,15,03,325,*7F
$GPGSV,4,4,13,10,01,029,*40
$GPRMC,212352.000,A,4339.5346,N,07922.7625,W,0.00,334.08,270417,,,A*73
$GPVTG,334.08,T,,M,0.00,N,0.00,K,A*31
$GPGGA,212353.000,4339.5346,N,07922.7625,W,1,8,1.11,102.4,M,-35.1,M,,*6F
$GPGLL,4339.5346,N,07922.7625,W,212353.000,A,A*4E
$GPGSA,A,3,30,11,28,01,07,08,17,13,,,,,2.15,1.11,1.84*0B
$GPGSV,4,1,13,30,66,230,44,11,64,085,43,28,59,313,44,01,55,123,40*76
$GPGSV,4,2,13,07,39,174,37,51,32,217,39,17,30,244,43,08,29,057,20*7E
$GPGSV,4,3,13,13,18,296,30,19,07,239,,22,05,116,19,15,03,325,*76
$GPGSV,4,4,13,10,01,029,*40
$GPRMC,212353.000,A,4339.5346,N,07922.7625,W,0.00,334.08,270417,,,A*72
$GPVTG,334.08,T,,M,0.00,N,0.00,K,A*31
$GPGGA,212354.000,4339.5346,N,07922.7625,W,1,8,1.11,102.4,M,-35.1,M,,*68
$GPGLL,4339.5346,N,07922.7625,W,212354.000,A,A*49
$GPGSA,A,3,30,11,28,01,07,08,17,13,,,,,2.14,1.11,1.84*0A
$GPGSV,4,1,13,30,66,230,45,11,64,085,43,28,59,313,44,01,55,123,40*77
$GPGSV,4,2,13,07,39,174,35,51,32,217,38,17,30,244,36,08,29,057,28*77
$GPGSV,4,3,13,13,18,296,28,19,07,239,,22,05,116,19,15,03,325,*7F
$GPGSV,4,4,13,10,01,029,*40
$GPRMC,212354.000,A,4339.5346,N,07922.7625,W,0.00,334.08,270417,,,A*75
$GPVTG,334.08,T,,M,0.00,N,0.00,K,A*31
$GPGGA,212355.000,4339.5346,N,07922.7625,W,1,8,1.11,102.4,M,-35.1,M,,*69
$GPGLL,4339.5346,N,07922.7625,W,212355.000,A,A*48
$GPGSA,A,3,30,11,28,01,07,08,17,13,,,,,2.14,1.11,1.83*0D
$GPGSV,4,1,13,30,66,230,45,11,64,085,43,28,59,313,44,01,55,123,40*77
$GPGSV,4,2,13,07,39,174,36,51,32,217,38,17,30,244,38,08,29,057,29*7B
$GPGSV,4,3,13,13,18,296,28,19,07,239,,22,05,116,18,15,03,325,*7E
$GPGSV,4,4,13,10,01,029,*40
$GPRMC,212355.000,A,4339.5346,N,07922.7625,W,0.00,334.08,270417,,,A*74
$GPVTG,334.08,T,,M,0.00,N,0.00,K,A*31
$GPGGA,212356.000,4339.5346,N,07922.7625,W,1,8,1.11,102.4,M,-35.1,M,,*6A
$GPGLL,4339.5346,N,07922.7625,W,212356.000,A,A*4B
$GPGSA,A,3,30,11,28,01,07,08,17,13,,,,,2.14,1.11,1.83*0D
$GPGSV,4,1,13,30,66,230,45,11,64,085,43,28,59,313,44,01,55,123,41*76
$GPGSV,4,2,13,07,39,174,37,51,32,217,38,17,30,244,39,08,29,057,29*7B
$GPGSV,4,3,13,13,18,296,28,19,07,239,,22,05,116,18,15,03,325,*7E
$GPGSV,4,4,13,10,01,029,*40
$GPRMC,212356.000,A,4339.5346,N,07922.7625,W,0.00,334.08,270417,,,A*77
$GPVTG,334.08,T,,M,0.00,N,0.00,K,A*31
$GPGGA,212357.000,4339.5346,N,07922.7625,W,1,8,1.11,102.4,M,-35.1,M,,*6B
$GPGLL,4339.5346,N,07922.7625,W,212357.000,A,A*4A
$GPGSA,A,3,30,11,28,01,07,08,17,13,,,,,2.14,1.11,1.83*0D
$GPGSV,4,1,13,30,66,230,45,11,63,085,42,28,59,313,44,01,55,123,41*70
$GPGSV,4,2,13,07,39,174,38,51,32,217,38,17,30,244,40,08,29,057,24*77
$GPGSV,4,3,13,13,18,296,27,19,07,239,,22,05,116,17,15,03,325,*7E
$GPGSV,4,4,13,10,01,029,*40
$GPRMC,212357.000,A,4339.5346,N,07922.7625,W,0.00,334.08,270417,,,A*76
$GPVTG,334.08,T,,M,0.00,N,0.00,K,A*31
$GPGGA,212358.000,4339.5346,N,07922.7625,W,1,8,1.11,102.4,M,-35.1,M,,*64
$GPGLL,4339.5346,N,07922.7625,W,212358.000,A,A*45
$GPGSA,A,3,30,11,28,01,07,08,17,13,,,,,2.14,1.11,1.83*0D
$GPGSV,4,1,13,30,66,230,45,11,63,085,42,28,59,313,44,01,55,123,41*70
$GPGSV,4,2,13,07,39,174,39,51,32,217,38,17,30,244,40,08,29,057,25*77
$GPGSV,4,3,13,13,18,296,27,19,07,239,,22,05,116,16,15,03,325,*7F
$GPGSV,4,4,13,10,01,029,*40
$GPRMC,212358.000,A,4339.5346,N,07922.7625,W,0.00,334.08,270417,,,A*79
$GPVTG,334.08,T,,M,0.00,N,0.00,K,A*31
$GPGGA,212359.000,4339.5346,N,07922.7625,W,1,8,1.11,102.4,M,-35.1,M,,*65
$GPGLL,4339.5346,N,07922.7625,W,212359.000,A,A*44
$GPGSA,A,3,30,11,28,01,07,08,17,13,,,,,2.14,1.11,1.83*0D
$GPGSV,4,1,13,30,66,230,45,11,63,085,42,28,59,313,44,01,55,123,41*70
$GPGSV,4,2,13,07,39,174,39,51,32,217,38,17,30,244,41,08,29,057,20*73
$GPGSV,4,3,13,13,18,296,29,19,07,239,,22,05,116,16,15,03,325,*71
$GPGSV,4,4,13,10,01,029,*40
$GPRMC,212359.000,A,4339.5346,N,07922.7625,W,0.00,334.08,270417,,,A*78
$GPVTG,334.08,T,,M,0.00,N,0.00,K,A*31
$GPGGA,212400.000,4339.5346,N,07922.7625,W,1,8,1.11,102.4,M,-35.1,M,,*6E
$GPGLL,4339.5346,N,07922.7625,W,212400.000,A,A*4F
$GPGSA,A,3,30,11,28,01,07,08,17,13,,,,,2.14,1.11,1.83*0D
$GPGSV,4,1,13,30,66,230,45,11,63,085,42,28,59,313,44,01,55,123,41*70
$GPGSV,4,2,13,07,39,174,40,51,32,217,38,17,30,244,41,08,29,057,25*78
$GPGSV,4,3,13,13,18,296,29,19,07,239,,22,05,116,16,15,03,325,*71
$GPGSV,4,4,13,10,01,029,*40
$GPRMC,212400.000,A,4339.5346,N,07922.7625,W,0.00,334.08,270417,,,A*73
$GPVTG,334.08,T,,M,0.00,N,0.00,K,A*31
$GPGGA,212401.000,4339.5346,N,07922.7625,W,1,8,1.11,102.4,M,-35.1,M,,*6F
$GPGLL,4339.5346,N,07922.7625,W,212401.000,A,A*4E
$GPGSA,A,3,30,11,28,01,07,08,17,13,,,,,2.14,1.11,1.83*0D
$GPGSV,4,1,13,30,66,230,45,11,63,085,42,28,59,313,44,01,55,123,41*70
$GPGSV,4,2,13,07,39,174,40,51,32,217,38,17,30,244,41,08,29,057,24*79
$GPGSV,4,3,13,13,18,296,29,19,07,239,,22,05,116,,15,03,325,*76
$GPGSV,4,4,13,10,01,029,*40
$GPRMC,212401.000,A,4339.5346,N,07922.7625,W,0.00,334.08,270417,,,A*72
$GPVTG,334.08,T,,M,0.00,N,0.00,K,A*31
$GPGGA,212402.000,4339.5346,N,07922.7625,W,1,8,1.11,102.4,M,-35.1,M,,*6C
$GPGLL,4339.5346,N,07922.7625,W,212402.000,A,A*4D
$GPGSA,A,3,30,11,28,01,07,08,17,13,,,,,2.14,1.11,1.83*0D
$GPGSV,4,1,13,30,66,230,45,11,63,085,42,28,59,313,44,01,55,123,41*70
$GPGSV,4,2,13,07,39,174,40,51,32,217,38,17,30,244,41,08,29,057,25*78
$GPGSV,4,3,13,13,18,296,29,19,07,239,,22,05,116,,15,03,325,*76
$GPGSV,4,4,13,10,01,029,*40
$GPRMC,212402.000,A,4339.5346,N,07922.7625,W,0.00,334.08,270417,,,A*71
$GPVTG,334.08,T,,M,0.00,N,0.00,K,A*31
$GPGGA,212403.000,4339.5346,N,07922.7625,W,1,8,1.11,102.4,M,-35.1,M,,*6D
$GPGLL,4339.5346,N,07922.7625,W,212403.000,A,A*4C
$GPGSA,A,3,30,11,28,01,07,08,17,13,,,,,2.14,1.11,1.83*0D
$GPGSV,4,1,13,30,66,230,45,11,63,085,42,28,59,313,44,01,55,123,41*70
$GPGSV,4,2,13,07,39,174,41,51,32,217,38,17,31,244,41,08,29,057,23*7E
$GPGSV,4,3,13,13,18,296,29,19,07,239,,22,05,116,,15,03,325,*76
$GPGSV,4,4,13,10,01,029,*40
$GPRMC,212403.000,A,4339.5346,N,07922.7625,W,0.00,334.08,270417,,,A*70
$GPVTG,334.08,T,,M,0.00,N,0.00,K,A*31
$GPGGA,212404.000,4339.5346,N,07922.7625,W,1,8,1.11,102.4,M,-35.1,M,,*6A
$GPGLL,4339.5346,N,07922.7625,W,212404.000,A,A*4B
$GPGSA,A,3,30,11,28,01,07,08,17,13,,,,,2.14,1.11,1.83*0D
$GPGSV,4,1,13,30,66,230,45,11,63,085,43,28,59,313,44,01,55,123,40*70
$GPGSV,4,2,13,07,39,174,40,51,32,217,40,17,31,244,42,08,29,057,23*73
$GPGSV,4,3,13,13,18,296,29,19,07,239,,22,05,116,,15,03,325,*76
$GPGSV,4,4,13,10,01,029,*40
$GPRMC,212404.000,A,4339.5346,N,07922.7625,W,0.00,334.08,270417,,,A*77
$GPVTG,334.08,T,,M,0.00,N,0.00,K,A*31
$GPGGA,212405.000,4339.5346,N,07922.7625,W,1,8,1.11,102.4,M,-35.1,M,,*6B
$GPGLL,4339.5346,N,07922.7625,W,212405.000,A,A*4A
$GPGSA,A,3,30,11,28,01,07,08,17,13,,,,,2.14,1.11,1.83*0D
$GPGSV,4,1,13,30,66,230,45,11,63,085,44,28,59,313,44,01,55,123,40*77
$GPGSV,4,2,13,07,39,174,40,51,32,217,41,17,31,244,42,08,29,057,21*70
$GPGSV,4,3,13,13,18,296,30,19,07,239,,22,05,116,,15,03,325,*7E
$GPGSV,4,4,13,10,01,029,*40
$GPRMC,212405.000,A,4339.5346,N,07922.7625,W,0.00,334.08,270417,,,A*76
$GPVTG,334.08,T,,M,0.00,N,0.00,K,A*31
$GPGGA,212406.000,4339.5346,N,07922.7625,W,1,8,1.11,102.4,M,-35.1,M,,*68
$GPGLL,4339.5346,N,07922.7625,W,212406.000,A,A*49
$GPGSA,A,3,30,11,28,01,07,08,17,13,,,,,2.14,1.11,1.83*0D
$GPGSV,4,1,13,30,66,230,45,11,63,085,44,28,59,313,44,01,55,123,40*77
$GPGSV,4,2,13,07,39,174,40,51,32,217,41,17,31,244,42,08,29,057,26*77
$GPGSV,4,3,13,13,18,296,31,19,07,239,,22,05,116,,15,03,325,*7F
$GPGSV,4,4,13,10,01,029,*40
$GPRMC,212406.000,A,4339.5346,N,07922.7625,W,0.00,334.08,270417,,,A*75
$GPVTG,334.08,T,,M,0.00,N,0.00,K,A*31
$GPGGA,212407.000,4339.5346,N,07922.7625,W,1,8,1.11,102.4,M,-35.1,M,,*69
$GPGLL,4339.5346,N,07922.7625,W,212407.000,A,A*48
$GPGSA,A,3,30,11,28,01,07,08,17,13,,,,,2.14,1.11,1.83*0D
$GPGSV,4,1,13,30,66,230,45,11,63,085,44,28,59,313,44,01,55,123,40*77
$GPGSV,4,2,13,07,39,174,40,51,32,217,40,17,31,244,42,08,29,057,30*71
$GPGSV,4,3,13,13,18,296,29,19,07,239,,22,05,116,,15,03,325,*76
$GPGSV,4,4,13,10,01,029,*40
$GPRMC,212407.000,A,4339.5346,N,07922.7625,W,0.00,334.08,270417,,,A*74
$GPVTG,334.08,T,,M,0.00,N,0.00,K,A*31
$GPGGA,212408.000,4339.5346,N,07922.7625,W,1,8,1.11,102.4,M,-35.1,M,,*66
$GPGLL,4339.5346,N,07922.7625,W,212408.000,A,A*47
$GPGSA,A,3,30,11,28,01,07,08,17,13,,,,,2.14,1.11,1.83*0D
$GPGSV,4,1,13,30,66,230,44,11,63,085,44,28,59,313,44,01,55,123,40*76
$GPGSV,4,2,13,07,39,174,40,51,32,217,24,17,31,244,41,08,29,057,22*73
$GPGSV,4,3,13,13,18,296,29,19,07,239,,22,05,115,,15,03,325,*75
$GPGSV,4,4,13,10,01,029,*40
$GPRMC,212408.000,A,4339.5346,N,07922.7625,W,0.00,334.08,270417,,,A*7B
$GPVTG,334.08,T,,M,0.00,N,0.00,K,A*31
$GPGGA,212409.000,4339.5346,N,07922.7625,W,1,7,1.25,102.4,M,-35.1,M,,*6F
$GPGLL,4339.5346,N,07922.7625,W,212409.000,A,A*46
$GPGSA,A,3,30,11,28,01,07,08,17,,,,,,2.54,1.25,2.21*07
$GPGSV,4,1,13,30,66,230,43,11,63,085,44,28,59,313,43,01,55,123,40*76
$GPGSV,4,2,13,07,39,174,40,51,32,217,39,17,31,244,42,08,29,057,33*7C
$GPGSV,4,3,13,13,18,296,,19,07,239,,22,05,115,,15,03,325,*7E
$GPGSV,4,4,13,10,01,029,*40
$GPRMC,212409.000,A,4339.5346,N,07922.7625,W,0.00,334.08,270417,,,A*7A
$GPVTG,334.08,T,,M,0.00,N,0.00,K,A*31
$GPGGA,212410.000,4339.5346,N,07922.7625,W,1,7,1.25,102.4,M,-35.1,M,,*67
$GPGLL,4339.5346,N,07922.7625,W,212410.000,A,A*4E
$GPGSA,A,3,30,11,28,01,07,08,17,,,,,,2.54,1.25,2.21*07
$GPGSV,4,1,13,30,66,230,43,11,63,085,44,28,59,313,43,01,55,123,40*76
$GPGSV,4,2,13,07,39,174,40,51,32,217,39,17,31,244,42,08,29,057,32*7D
$GPGSV,4,3,13,13,18,296,,19,07,239,,22,05,115,,15,03,325,*7E
$GPGSV,4,4,13,10,01,029,*40
$GPRMC,212410.000,A,4339.5346,N,07922.7625,W,0.00,334.08,270417,,,A*72
$GPVTG,334.08,T,,M,0.00,N,0.00,K,A*31
$GPGGA,212411.000,4339.5346,N,07922.7625,W,1,7,1.25,102.4,M,-35.1,M,,*66
$GPGLL,4339.5346,N,07922.7625,W,212411.000,A,A*4F
$GPGSA,A,3,30,11,28,01,07,08,17,,,,,,2.54,1.25,2.21*07
$GPGSV,4,1,13,30,66,230,43,11,63,085,43,28,59,313,43,01,55,123,40*71
$GPGSV,4,2,13,07,39,174,42,51,32,217,39,17,31,244,42,08,29,057,24*78
$GPGSV,4,3,13,13,18,296,,19,07,239,,22,05,115,,15,03,325,*7E
$GPGSV,4,4,13,10,01,029,*40
$GPRMC,212411.000,A,4339.5346,N,07922.7625,W,0.00,334.08,270417,,,A*73
$GPVTG,334.08,T,,M,0.00,N,0.00,K,A*31
$GPGGA,212412.000,4339.5346,N,07922.7625,W,1,8,1.11,102.4,M,-35.1,M,,*6D
$GPGLL,4339.5346,N,07922.7625,W,212412.000,A,A*4C
$GPGSA,A,3,30,11,28,01,07,08,17,13,,,,,2.14,1.11,1.83*0D
$GPGSV,4,1,13,30,66,230,44,11,63,085,43,28,59,313,43,01,55,123,39*78
$GPGSV,4,2,13,07,39,174,41,51,32,217,38,17,31,244,40,08,29,057,25*79
$GPGSV,4,3,13,13,18,296,29,19,07,239,,22,05,115,,15,03,325,*75
$GPGSV,4,4,13,10,01,029,*40
$GPRMC,212412.000,A,4339.5346,N,07922.7625,W,0.00,334.08,270417,,,A*70
$GPVTG,334.08,T,,M,0.00,N,0.00,K,A*31
$GPGGA,212413.000,4339.5346,N,07922.7625,W,1,8,1.11,102.4,M,-35.1,M,,*6C
$GPGLL,4339.5346,N,07922.7625,W,212413.000,A,A*4D
$GPGSA,A,3,30,11,28,01,07,08,17,13,,,,,2.14,1.11,1.83*0D
$GPGSV,4,1,13,30,66,230,45,11,63,085,43,28,59,313,44,01,55,123,39*7E
$GPGSV,4,2,13,07,39,174,41,51,32,217,39,17,31,244,39,08,29,057,25*76
$GPGSV,4,3,13,13,18,296,28,19,07,239,,22,05,115,,15,03,325,*74
$GPGSV,4,4,13,10,01,029,*40
$GPRMC,212413.000,A,4339.5346,N,07922.7625,W,0.00,334.08,270417,,,A*71
$GPVTG,334.08,T,,M,0.00,N,0.00,K,A*31
$GPGGA,212414.000,4339.5346,N,07922.7625,W,1,8,1.11,102.4,M,-35.1,M,,*6B
$GPGLL,4339.5346,N,07922.7625,W,212414.000,A,A*4A
$GPGSA,A,3,30,11,28,01,07,08,17,13,,,,,2.14,1.11,1.83*0D
$GPGSV,4,1,13,30,66,230,46,11,63,085,43,28,59,313,44,01,55,123,38*7C
$GPGSV,4,2,13,07,39,174,41,51,32,217,40,17,31,244,38,08,29,057,24*78
$GPGSV,4,3,13,13,18,296,25,19,07,239,,22,05,115,,15,03,325,*79
$GPGSV,4,4,13,10,01,029,*40
$GPRMC,212414.000,A,4339.5346,N,07922.7625,W,0.00,334.08,270417,,,A*76
$GPVTG,334.08,T,,M,0.00,N,0.00,K,A*31
$GPGGA,212415.000,4339.5346,N,07922.7625,W,1,8,1.11,102.4,M,-35.1,M,,*6A
$GPGLL,4339.5346,N,07922.7625,W,212415.000,A,A*4B
$GPGSA,A,3,30,11,28,01,07,08,17,13,,,,,2.14,1.11,1.83*0D
$GPGSV,4,1,13,30,66,230,46,11,63,085,43,28,59,313,44,01,55,123,38*7C
$GPGSV,4,2,13,07,39,174,41,51,32,217,40,17,31,244,37,08,29,057,21*72
$GPGSV,4,3,13,13,18,296,26,19,07,239,,22,05,115,,15,03,325,*7A
$GPGSV,4,4,13,10,01,029,*40
$GPRMC,212415.000,A,4339.5346,N,07922.7625,W,0.00,334.08,270417,,,A*77
$GPVTG,334.08,T,,M,0.00,N,0.00,K,A*31
$GPGGA,212416.000,4339.5346,N,07922.7625,W,1,8,1.11,102.4,M,-35.1,M,,*69
$GPGLL,4339.5346,N,07922.7625,W,212416.000,A,A*48
$GPGSA,A,3,30,11,28,01,07,08,17,13,,,,,2.14,1.11,1.83*0D
$GPGSV,4,1,13,30,66,230,46,11,63,085,43,28,59,313,44,01,55,123,38*7C
$GPGSV,4,2,13,07,39,174,41,51,32,217,40,17,31,244,36,08,29,057,21*73
$GPGSV,4,3,13,13,18,296,26,19,07,239,,22,05,115,,15,03,325,*7A
$GPGSV,4,4,13,10,01,029,*40
$GPRMC,212416.000,A,4339.5346,N,07922.7625,W,0.00,334.08,270417,,,A*74
$GPVTG,334.08,T,,M,0.00,N,0.00,K,A*31
$GPGGA,212417.000,4339.5346,N,07922.7625,W,1,8,1.11,102.4,M,-35.1,M,,*68
$GPGLL,4339.5346,N,07922.7625,W,212417.000,A,A*49
$GPGSA,A,3,30,11,28,01,07,08,17,13,,,,,2.14,1.11,1.83*0D
$GPGSV,4,1,13,30,66,230,46,11,63,085,43,28,59,313,44,01,55,123,37*73
$GPGSV,4,2,13,07,39,174,40,51,32,217,40,17,31,244,36,08,29,057,21*72
$GPGSV,4,3,13,13,18,296,26,19,07,239,,22,05,115,,15,03,325,*7A
$GPGSV,4,4,13,10,01,029,*40
$GPRMC,212417.000,A,4339.5346,N,07922.7625,W,0.00,334.08,270417,,,A*75
$GPVTG,334.08,T,,M,0.00,N,0.00,K,A*31
$GPGGA,212418.000,4339.5346,N,07922.7625,W,1,8,1.11,102.4,M,-35.1,M,,*67
$GPGLL,4339.5346,N,07922.7625,W,212418.000,A,A*46
$GPGSA,A,3,30,11,28,01,07,08,17,13,,,,,2.14,1.11,1.83*0D
$GPGSV,4,1,13,30,66,230,46,11,63,085,43,28,59,313,44,01,55,123,37*73
$GPGSV,4,2,13,07,39,174,40,51,32,217,40,17,31,244,36,08,29,057,21*72
$GPGSV,4,3,13,13,18,296,27,19,07,239,,22,05,115,,15,03,325,*7B
$GPGSV,4,4,13,10,01,029,*40
$GPRMC,212418.000,A,4339.5346,N,07922.7625,W,0.00,334.08,270417,,,A*7A
$GPVTG,334.08,T,,M,0.00,N,0.00,K,A*31
$GPGGA,212419.000,4339.5346,N,07922.7625,W,1,8,1.11,102.4,M,-35.1,M,,*66
$GPGLL,4339.5346,N,07922.7625,W,212419.000,A,A*47
$GPGSA,A,3,30,11,28,01,07,08,17,13,,,,,2.14,1.11,1.83*0D
$GPGSV,4,1,13,30,66,230,46,11,63,085,43,28,59,313,44,01,55,123,37*73
$GPGSV,4,2,13,07,39,174,40,51,32,217,40,17,31,244,35,08,29,057,22*72
$GPGSV,4,3,13,13,18,296,27,19,07,239,,22,05,115,,15,03,325,*7B
$GPGSV,4,4,13,10,01,029,*40
$GPRMC,212419.000,A,4339.5346,N,07922.7625,W,0.00,334.08,270417,,,A*7B
$GPVTG,334.08,T,,M,0.00,N,0.00,K,A*31
$GPGGA,212420.000,4339.5346,N,07922.7625,W,1,8,1.11,102.4,M,-35.1,M,,*6C
$GPGLL,4339.5346,N,07922.7625,W,212420.000,A,A*4D
$GPGSA,A,3,30,11,28,01,07,08,17,13,,,,,2.14,1.11,1.83*0D
$GPGSV,4,1,13,30,66,230,47,11,63,085,43,28,59,313,44,01,55,123,37*72
$GPGSV,4,2,13,07,39,174,40,51,32,217,40,17,31,244,34,08,29,057,22*73
$GPGSV,4,3,13,13,18,296,26,19,07,239,,22,05,115,,15,03,325,*7A
$GPGSV,4,4,13,10,01,029,*40
$GPRMC,212420.000,A,4339.5346,N,07922.7625,W,0.00,334.08,270417,,,A*71
$GPVTG,334.08,T,,M,0.00,N,0.00,K,A*31
$GPGGA,212421.000,4339.5346,N,07922.7625,W,1,8,1.11,102.4,M,-35.1,M,,*6D
$GPGLL,4339.5346,N,07922.7625,W,212421.000,A,A*4C
$GPGSA,A,3,30,11,28,01,07,08,17,13,,,,,2.14,1.11,1.83*0D
$GPGSV,4,1,13,30,66,230,47,11,63,085,43,28,59,313,44,01,55,123,37*72
$GPGSV,4,2,13,07,39,174,40,51,32,217,40,17,31,244,34,08,29,057,21*70
$GPGSV,4,3,13,13,18,296,25,19,07,239,,22,05,115,,15,03,325,*79
$GPGSV,4,4,13,10,01,029,*40
$GPRMC,212421.000,A,4339.5346,N,07922.7625,W,0.00,334.08,270417,,,A*70
$GPVTG,334.08,T,,M,0.00,N,0.00,K,A*31
$GPGGA,212422.000,4339.5346,N,07922.7625,W,1,8,1.11,102.4,M,-35.1,M,,*6E
$GPGLL,4339.5346,N,07922.7625,W,212422.000,A,A*4F
$GPGSA,A,3,30,11,28,01,07,08,17,13,,,,,2.14,1.11,1.83*0D
$GPGSV,4,1,13,30,66,230,47,11,63,085,43,28,59,313,44,01,56,123,37*71
$GPGSV,4,2,13,07,39,174,40,51,32,217,40,17,31,244,34,08,29,057,20*71
$GPGSV,4,3,13,13,18,296,23,19,07,239,,22,05,115,,15,03,325,*7F
$GPGSV,4,4,13,10,01,029,*40
$GPRMC,212422.000,A,4339.5346,N,07922.7625,W,0.00,334.08,270417,,,A*73
$GPVTG,334.08,T,,M,0.00,N,0.00,K,A*31
$GPGGA,212423.000,4339.5346,N,07922.7625,W,1,8,1.11,102.4,M,-35.1,M,,*6F
$GPGLL,4339.5346,N,07922.7625,W,212423.000,A,A*4E
$GPGSA,A,3,30,11,28,01,07,08,17,13,,,,,2.14,1.11,1.83*0D
$GPGSV,4,1,13,30,66,230,47,11,63,085,43,28,59,313,44,01,56,123,38*7E
$GPGSV,4,2,13,07,39,174,40,51,32,217,39,17,31,244,41,08,29,057,20*7D
$GPGSV,4,3,13,13,18,296,22,19,07,239,,22,05,115,,15,03,325,*7E
$GPGSV,4,4,13,10,01,029,16*47
$GPRMC,212423.000,A,4339.5346,N,07922.7625,W,0.00,334.08,270417,,,A*72
$GPVTG,334.08,T,,M,0.00,N,0.00,K,A*31
$GPGGA,212424.000,4339.5346,N,07922.7625,W,1,8,1.11,102.4,M,-35.1,M,,*68
$GPGLL,4339.5346,N,07922.7625,W,212424.000,A,A*49
$GPGSA,A,3,30,11,28,01,07,08,17,13,,,,,2.13,1.11,1.82*0B
$GPGSV,4,1,13,30,66,230,47,11,63,085,43,28,59,313,44,01,56,123,38*7E
$GPGSV,4,2,13,07,39,174,41,51,32,217,38,17,31,244,41,08,29,057,24*79
$GPGSV,4,3,13,13,18,296,20,19,07,239,,22,05,115,,15,03,325,*7C
$GPGSV,4,4,13,10,01,029,15*44
$GPRMC,212424.000,A,4339.5346,N,07922.7625,W,0.00,334.08,270417,,,A*75
$GPVTG,334.08,T,,M,0.00,N,0.00,K,A*31
$GPGGA,212425.000,4339.5346,N,07922.7625,W,1,8,1.11,102.4,M,-35.1,M,,*69
$GPGLL,4339.5346,N,07922.7625,W,212425.000,A,A*48
$GPGSA,A,3,30,11,28,01,07,08,17,13,,,,,2.14,1.11,1.83*0D
$GPGSV,4,1,13,30,66,230,47,11,63,085,42,28,59,313,44,01,56,123,38*7F
$GPGSV,4,2,13,07,39,174,40,51,32,217,39,17,31,244,34,08,29,057,29*76
$GPGSV,4,3,13,13,18,296,19,19,07,239,,22,05,115,,15,03,325,*76
$GPGSV,4,4,13,10,01,029,15*44
$GPRMC,212425.000,A,4339.5346,N,07922.7625,W,0.00,334.08,270417,,,A*74
$GPVTG,334.08,T,,M,0.00,N,0.00,K,A*31
$GPGGA,212426.000,4339.5346,N,07922.7625,W,1,8,1.11,102.4,M,-35.1,M,,*6A
$GPGLL,4339.5346,N,07922.7625,W,212426.000,A,A*4B
$GPGSA,A,3,30,11,28,01,07,08,17,13,,,,,2.13,1.11,1.82*0B
$GPGSV,4,1,13,30,66,230,47,11,63,085,42,28,59,313,44,01,56,123,38*7F
$GPGSV,4,2,13,07,39,174,39,51,32,217,40,17,31,244,34,08,29,057,27*78
$GPGSV,4,3,13,13,18,296,18,19,07,239,,22,05,115,,15,03,325,*77
$GPGSV,4,4,13,10,01,029,15*44
$GPRMC,212426.000,A,4339.5346,N,07922.7625,W,0.00,334.08,270417,,,A*77
$GPVTG,334.08,T,,M,0.00,N,0.00,K,A*31
$GPGGA,212427.000,4339.5346,N,07922.7625,W,1,8,1.11,102.4,M,-35.1,M,,*6B
$GPGLL,4339.5346,N,07922.7625,W,212427.000,A,A*4A
$GPGSA,A,3,30,11,28,01,07,08,17,13,,,,,2.13,1.11,1.82*0B
$GPGSV,4,1,13,30,66,230,47,11,63,085,42,28,59,313,44,01,56,123,38*7F
$GPGSV,4,2,13,07,39,174,39,51,32,217,40,17,31,244,34,08,29,057,29*76
$GPGSV,4,3,13,13,18,296,18,19,07,239,,22,05,115,,15,03,325,*77
$GPGSV,4,4,13,10,01,029,15*44
$GPRMC,212427.000,A,4339.5346,N,07922.7625,W,0.00,334.08,270417,,,A*76
$GPVTG,334.08,T,,M,0.00,N,0.00,K,A*31
$GPGGA,212428.000,4339.5346,N,07922.7625,W,1,8,1.11,102.4,M,-35.1,M,,*64
$GPGLL,4339.5346,N,07922.7625,W,212428.000,A,A*45
$GPGSA,A,3,30,11,28,01,07,08,17,13,,,,,2.14,1.11,1.83*0D
$GPGSV,4,1,13,30,66,230,47,11,63,085,42,28,59,313,44,01,56,123,38*7F
$GPGSV,4,2,13,07,39,174,40,51,32,217,40,17,31,244,34,08,29,057,30*70
$GPGSV,4,3,13,13,18,296,18,19,07,239,,22,05,115,,15,03,325,*77
$GPGSV,4,4,13,10,01,029,15*44
$GPRMC,212428.000,A,4339.5346,N,07922.7625,W,0.00,334.08,270417,,,A*79
$GPVTG,334.08,T,,M,0.00,N,0.00,K,A*31
$GPGGA,212429.000,4339.5346,N,07922.7625,W,1,8,1.11,102.4,M,-35.1,M,,*65
$GPGLL,4339.5346,N,07922.7625,W,212429.000,A,A*44
$GPGSA,A,3,30,11,28,01,07,08,17,13,,,,,2.14,1.11,1.83*0D
$GPGSV,4,1,13,30,66,230,47,11,63,085,42,28,59,313,44,01,56,123,38*7F
$GPGSV,4,2,13,07,39,174,40,51,32,217,40,17,31,244,34,08,29,057,31*71
$GPGSV,4,3,13,13,18,296,17,19,07,239,,22,05,115,,15,03,325,*78
$GPGSV,4,4,13,10,01,029,15*44
$GPRMC,212429.000,A,4339.5346,N,07922.7625,W,0.00,334.08,270417,,,A*78
$GPVTG,334.08,T,,M,0.00,N,0.00,K,A*31
$GPGGA,212430.000,4339.5346,N,07922.7625,W,1,8,1.11,102.4,M,-35.1,M,,*6D
$GPGLL,4339.5346,N,07922.7625,W,212430.000,A,A*4C
$GPGSA,A,3,30,11,28,01,07,08,17,13,,,,,2.13,1.11,1.83*0A
$GPGSV,4,1,13,30,66,230,47,11,63,085,42,28,59,313,44,01,56,123,38*7F
$GPGSV,4,2,13,07,39,174,39,51,32,217,40,17,31,244,33,08,29,057,22*7A
$GPGSV,4,3,13,13,18,296,17,19,07,239,,22,05,115,,15,03,325,*78
$GPGSV,4,4,13,10,01,029,15*44
$GPRMC,212430.000,A,4339.5346,N,07922.7625,W,0.00,334.08,270417,,,A*70
$GPVTG,334.08,T,,M,0.00,N,0.00,K,A*31
$GPGGA,212431.000,4339.5346,N,07922.7625,W,1,8,1.11,102.4,M,-35.1,M,,*6C
$GPGLL,4339.5346,N,07922.7625,W,212431.000,A,A*4D
$GPGSA,A,3,30,11,28,01,07,08,17,13,,,,,2.14,1.11,1.83*0D
$GPGSV,4,1,13,30,66,230,47,11,63,085,42,28,59,313,44,01,56,123,38*7F
$GPGSV,4,2,13,07,39,174,38,51,32,217,40,17,31,244,32,08,29,057,19*72
$GPGSV,4,3,13,13,18,296,17,19,07,239,16,22,05,115,,15,03,325,*7F
$GPGSV,4,4,13,10,01,028,15*45
$GPRMC,212431.000,A,4339.5346,N,07922.7625,W,0.00,334.08,270417,,,A*71
$GPVTG,334.08,T,,M,0.00,N,0.00,K,A*31
$GPGGA,212432.000,4339.5346,N,07922.7625,W,1,8,1.11,102.4,M,-35.1,M,,*6F
$GPGLL,4339.5346,N,07922.7625,W,212432.000,A,A*4E
$GPGSA,A,3,30,11,28,01,07,08,17,13,,,,,2.14,1.11,1.83*0D
$GPGSV,4,1,13,30,66,230,47,11,63,084,42,28,59,313,44,01,56,123,38*7E
$GPGSV,4,2,13,07,39,174,38,51,32,217,40,17,31,244,32,08,29,057,22*7A
$GPGSV,4,3,13,13,18,296,24,19,07,239,15,22,05,115,,15,03,325,*7C
$GPGSV,4,4,13,10,01,028,15*45
$GPRMC,212432.000,A,4339.5346,N,07922.7625,W,0.00,334.08,270417,,,A*72
$GPVTG,334.08,T,,M,0.00,N,0.00,K,A*31
$GPGGA,212433.000,4339.5346,N,07922.7625,W,1,8,1.11,102.4,M,-35.1,M,,*6E
$GPGLL,4339.5346,N,07922.7625,W,212433.000,A,A*4F
$GPGSA,A,3,30,11,28,01,07,08,17,13,,,,,2.13,1.11,1.82*0B
$GPGSV,4,1,13,30,66,230,47,11,63,084,42,28,59,313,44,01,56,123,39*7F
$GPGSV,4,2,13,07,39,174,39,51,32,217,40,17,31,244,34,08,29,057,34*7A
$GPGSV,4,3,13,13,18,296,24,19,07,239,15,22,05,115,,15,03,325,*7C
$GPGSV,4,4,13,10,01,028,16*46
$GPRMC,212433.000,A,4339.5346,N,07922.7625,W,0.00,334.08,270417,,,A*73
$GPVTG,334.08,T,,M,0.00,N,0.00,K,A*31
$GPGGA,212434.000,4339.5346,N,07922.7625,W,1,8,1.11,102.4,M,-35.1,M,,*69
$GPGLL,4339.5346,N,07922.7625,W,212434.000,A,A*48
$GPGSA,A,3,30,11,28,01,07,08,17,13,,,,,2.14,1.11,1.83*0D
$GPGSV,4,1,13,30,66,230,37,11,63,084,42,28,59,313,44,01,56,123,40*76
$GPGSV,4,2,13,07,39,174,40,51,32,217,32,17,31,244,34,08,29,057,33*76
$GPGSV,4,3,13,13,18,295,23,19,07,239,,22,05,115,,15,03,325,*7C
$GPGSV,4,4,13,10,01,028,16*46
$GPRMC,212434.000,A,4339.5346,N,07922.7625,W,0.00,334.08,270417,,,A*74
$GPVTG,334.08,T,,M,0.00,N,0.00,K,A*31
$GPGGA,212435.000,4339.5346,N,07922.7625,W,1,7,1.25,102.4,M,-35.1,M,,*60
$GPGLL,4339.5346,N,07922.7625,W,212435.000,A,A*49
$GPGSA,A,3,30,11,28,01,07,08,17,,,,,,2.54,1.25,2.20*06
$GPGSV,4,1,13,30,66,230,39,11,63,084,42,28,59,313,42,01,56,123,39*70
$GPGSV,4,2,13,07,39,174,38,51,32,217,39,17,31,244,26,08,29,057,25*76
$GPGSV,4,3,13,13,18,295,,19,07,239,,22,05,115,,15,03,325,*7D
$GPGSV,4,4,13,10,01,028,15*45
$GPRMC,212435.000,A,4339.5346,N,07922.7625,W,0.00,334.08,270417,,,A*75
$GPVTG,334.08,T,,M,0.00,N,0.00,K,A*31
$GPGGA,212436.000,4339.5346,N,07922.7625,W,1,8,1.25,102.4,M,-35.1,M,,*6C
$GPGLL,4339.5346,N,07922.7625,W,212436.000,A,A*4A
$GPGSA,A,3,13,30,11,28,01,07,08,17,,,,,2.54,1.25,2.20*04
$GPGSV,4,1,13,30,66,230,41,11,63,084,42,28,59,313,41,01,56,123,39*7C
$GPGSV,4,2,13,07,39,174,37,51,32,217,39,17,31,244,33,08,29,057,27*7F
$GPGSV,4,3,13,13,18,295,33,19,07,239,,22,05,115,29,15,03,325,*76
$GPGSV,4,4,13,10,01,028,15*45
$GPRMC,212436.000,A,4339.5346,N,07922.7625,W,0.00,334.08,270417,,,A*76
$GPVTG,334.08,T,,M,0.00,N,0.00,K,A*31
$GPGGA,212437.000,4339.5346,N,07922.7625,W,1,8,1.25,102.4,M,-35.1,M,,*6D
$GPGLL,4339.5346,N,07922.7625,W,212437.000,A,A*4B
$GPGSA,A,3,30,11,28,01,07,08,17,13,,,,,2.54,1.25,2.21*05
$GPGSV,4,1,13,30,66,230,41,11,63,084,42,28,59,313,27,01,56,123,38*7D
$GPGSV,4,2,13,07,39,174,38,51,32,217,38,17,31,244,34,08,29,057,35*75
$GPGSV,4,3,13,13,18,295,34,19,07,239,,22,05,115,29,15,03,325,*71
$GPGSV,4,4,13,10,01,028,15*45
$GPRMC,212437.000,A,4339.5346,N,07922.7625,W,0.00,334.08,270417,,,A*77
$GPVTG,334.08,T,,M,0.00,N,0.00,K,A*31
$GPGGA,212438.000,4339.5346,N,07922.7625,W,1,8,1.11,102.4,M,-35.1,M,,*65
$GPGLL,4339.5346,N,07922.7625,W,212438.000,A,A*44
$GPGSA,A,3,30,11,28,01,07,08,17,13,,,,,2.13,1.11,1.82*0B
$GPGSV,4,1,13,30,66,230,39,11,63,084,41,28,59,313,26,01,56,123,38*70
$GPGSV,4,2,13,07,39,174,40,51,32,217,36,17,31,245,32,08,29,057,34*72
$GPGSV,4,3,13,13,18,295,26,19,07,239,,22,05,115,20,15,03,325,*7B
$GPGSV,4,4,13,10,01,028,14*44
$GPRMC,212438.000,A,4339.5346,N,07922.7625,W,0.00,334.08,270417,,,A*78
$GPVTG,334.08,T,,M,0.00,N,0.00,K,A*31
$GPGGA,212439.000,4339.5346,N,07922.7625,W,1,7,1.25,102.4,M,-35.1,M,,*6C
$GPGLL,4339.5346,N,07922.7625,W,212439.000,A,A*45
$GPGSA,A,3,30,11,28,01,07,08,17,,,,,,2.53,1.25,2.20*01
$GPGSV,4,1,13,30,66,230,40,11,63,084,40,28,59,313,26,01,56,123,38*7F
$GPGSV,4,2,13,07,39,174,48,51,32,217,36,17,31,245,32,08,29,057,41*78
$GPGSV,4,3,13,13,18,295,,19,07,239,,22,05,115,17,15,03,325,*7B
$GPGSV,4,4,13,10,01,028,13*43
$GPRMC,212439.000,A,4339.5346,N,07922.7625,W,0.00,334.08,270417,,,A*79
$GPVTG,334.08,T,,M,0.00,N,0.00,K,A*31
$GPGGA,212440.000,4339.5346,N,07922.7625,W,1,8,1.07,102.4,M,-35.1,M,,*6D
$GPGLL,4339.5346,N,07922.7625,W,212440.000,A,A*4B
$GPGSA,A,3,13,30,11,28,01,07,08,17,,,,,1.38,1.07,0.88*0D
$GPGSV,4,1,13,30,66,230,41,11,63,084,40,28,59,313,27,01,56,123,39*7E
$GPGSV,4,2,13,07,39,174,48,51,32,217,37,17,31,245,39,08,29,057,41*72
$GPGSV,4,3,13,13,18,295,23,19,08,239,,22,05,115,24,15,03,325,*75
$GPGSV,4,4,13,10,01,028,14*44
$GPRMC,212440.000,A,4339.5346,N,07922.7625,W,0.00,334.08,270417,,,A*77
$GPVTG,334.08,T,,M,0.00,N,0.00,K,A*31
$GPGGA,212441.000,4339.5346,N,07922.7625,W,1,8,1.07,102.4,M,-35.1,M,,*6C
$GPGLL,4339.5346,N,07922.7625,W,212441.000,A,A*4A
$GPGSA,A,3,13,30,11,28,01,07,08,17,,,,,1.38,1.07,0.88*0D
$GPGSV,4,1,13,30,66,230,41,11,63,084,39,28,59,313,35,01,56,123,38*72
$GPGSV,4,2,13,07,39,174,47,51,32,217,38,17,31,245,39,08,29,057,40*73
$GPGSV,4,3,13,13,18,295,20,19,08,239,,22,05,115,,15,03,325,*70
$GPGSV,4,4,13,10,01,028,14*44
$GPRMC,212441.000,A,4339.5346,N,07922.7625,W,0.00,334.08,270417,,,A*76
$GPVTG,334.08,T,,M,0.00,N,0.00,K,A*31
$GPGGA,212442.000,4339.5346,N,07922.7625,W,1,8,1.07,102.4,M,-35.1,M,,*6F
$GPGLL,4339.5346,N,07922.7625,W,212442.000,A,A*49
$GPGSA,A,3,13,30,11,28,01,07,08,17,,,,,1.38,1.07,0.88*0D
$GPGSV,4,1,13,30,66,230,42,11,63,084,40,28,59,313,28,01,56,123,38*73
$GPGSV,4,2,13,07,39,174,47,51,32,217,38,17,31,245,39,08,29,057,39*7D
$GPGSV,4,3,13,13,18,295,22,19,08,239,,22,05,115,,15,03,325,*72
$GPGSV,4,4,13,10,01,028,14*44
$GPRMC,212442.000,A,4339.5346,N,07922.7625,W,0.00,334.08,270417,,,A*75
$GPVTG,334.08,T,,M,0.00,N,0.00,K,A*31
$GPGGA,212443.000,4339.5346,N,07922.7625,W,1,8,1.07,102.4,M,-35.1,M,,*6E
$GPGLL,4339.5346,N,07922.7625,W,212443.000,A,A*48
$GPGSA,A,3,13,30,11,28,01,07,08,17,,,,,1.38,1.07,0.88*0D
$GPGSV,4,1,13,30,66,230,43,11,63,084,40,28,59,313,32,01,56,123,39*78
$GPGSV,4,2,13,07,39,174,46,51,32,217,38,17,31,245,39,08,29,057,40*72
$GPGSV,4,3,13,13,18,295,19,19,08,239,,22,05,115,,15,03,325,*7A
$GPGSV,4,4,13,10,01,028,14*44
$GPRMC,212443.000,A,4339.5346,N,07922.7625,W,0.00,334.08,270417,,,A*74
$GPVTG,334.08,T,,M,0.00,N,0.00,K,A*31
$GPGGA,212444.000,4339.5346,N,07922.7625,W,1,8,1.07,102.4,M,-35.1,M,,*69
$GPGLL,4339.5346,N,07922.7625,W,212444.000,A,A*4F
$GPGSA,A,3,13,30,11,28,01,07,08,17,,,,,1.38,1.07,0.88*0D
$GPGSV,4,1,13,30,66,230,44,11,63,084,41,28,59,313,37,01,56,123,40*75
$GPGSV,4,2,13,07,39,174,31,51,32,217,38,17,31,245,40,08,29,057,38*73
$GPGSV,4,3,13,13,18,295,20,19,08,239,,22,05,115,22,15,03,325,*70
$GPGSV,4,4,13,10,01,028,13*43
$GPRMC,212444.000,A,4339.5346,N,07922.7625,W,0.00,334.08,270417,,,A*73
$GPVTG,334.08,T,,M,0.00,N,0.00,K,A*31
$GPGGA,212445.000,4339.5346,N,07922.7625,W,1,8,1.07,102.4,M,-35.1,M,,*68
$GPGLL,4339.5346,N,07922.7625,W,212445.000,A,A*4E
$GPGSA,A,3,13,30,11,28,01,07,08,17,,,,,1.38,1.07,0.88*0D
$GPGSV,4,1,13,30,66,230,44,11,63,084,42,28,59,313,38,01,56,123,39*77
$GPGSV,4,2,13,07,39,174,30,51,32,217,38,17,31,245,41,08,29,057,37*7C
$GPGSV,4,3,13,13,18,295,21,19,08,239,,22,05,115,20,15,03,325,*73
$GPGSV,4,4,13,10,01,028,13*43
$GPRMC,212445.000,A,4339.5346,N,07922.7625,W,0.00,334.08,270417,,,A*72
$GPVTG,334.08,T,,M,0.00,N,0.00,K,A*31
$GPGGA,212446.000,4339.5346,N,07922.7625,W,1,7,1.25,102.4,M,-35.1,M,,*64
$GPGLL,4339.5346,N,07922.7625,W,212446.000,A,A*4D
$GPGSA,A,3,30,11,28,01,07,08,17,,,,,,1.55,1.25,0.91*0C
$GPGSV,4,1,13,30,66,230,44,11,63,084,41,28,59,313,37,01,56,123,39*7B
$GPGSV,4,2,13,07,39,174,32,51,32,217,38,17,31,245,40,08,29,057,38*70
$GPGSV,4,3,13,13,18,295,,19,08,239,,22,05,115,19,15,03,325,*7A
$GPGSV,4,4,13,10,01,028,13*43
$GPRMC,212446.000,A,4339.5346,N,07922.7625,W,0.00,334.08,270417,,,A*71
$GPVTG,334.08,T,,M,0.00,N,0.00,K,A*31
$GPGGA,212447.000,4339.5346,N,07922.7625,W,1,7,1.25,102.4,M,-35.1,M,,*65
$GPGLL,4339.5346,N,07922.7625,W,212447.000,A,A*4C
$GPGSA,A,3,30,11,28,01,07,08,17,,,,,,1.55,1.25,0.91*0C
$GPGSV,4,1,13,30,66,230,42,11,63,084,40,28,59,313,35,01,56,123,32*75
$GPGSV,4,2,13,07,39,174,44,51,32,217,38,17,31,245,40,08,29,057,38*71
$GPGSV,4,3,13,13,18,295,,19,08,239,,22,05,115,18,15,03,325,*7B
$GPGSV,4,4,13,10,01,028,13*43
$GPRMC,212447.000,A,4339.5346,N,07922.7625,W,0.00,334.08,270417,,,A*70
$GPVTG,334.08,T,,M,0.00,N,0.00,K,A*31
$GPGGA,212448.000,4339.5346,N,07922.7625,W,1,8,1.07,102.4,M,-35.1,M,,*65
$GPGLL,4339.5346,N,07922.7625,W,212448.000,A,A*43
$GPGSA,A,3,13,30,11,28,01,07,08,17,,,,,1.38,1.07,0.88*0D
$GPGSV,4,1,13,30,66,230,42,11,63,084,40,28,59,313,34,01,56,123,40*71
$GPGSV,4,2,13,07,39,174,44,51,32,217,37,17,31,245,41,08,29,057,39*7E
$GPGSV,4,3,13,13,18,295,24,19,08,239,,22,05,115,,15,03,325,*74
$GPGSV,4,4,13,10,01,028,13*43
$GPRMC,212448.000,A,4339.5346,N,07922.7625,W,0.00,334.08,270417,,,A*7F
$GPVTG,334.08,T,,M,0.00,N,0.00,K,A*31
$GPGGA,212449.000,4339.5346,N,07922.7625,W,1,8,1.07,102.4,M,-35.1,M,,*64
$GPGLL,4339.5346,N,07922.7625,W,212449.000,A,A*42
$GPGSA,A,3,13,30,11,28,01,07,08,17,,,,,1.38,1.07,0.88*0D
$GPGSV,4,1,13,30,66,230,42,11,63,084,40,28,59,313,34,01,56,123,40*71
$GPGSV,4,2,13,07,39,174,45,51,32,217,37,17,31,245,41,08,29,057,39*7F
$GPGSV,4,3,13,13,18,295,23,19,08,239,,22,05,115,,15,03,325,*73
$GPGSV,4,4,13,10,01,028,12*42
$GPRMC,212449.000,A,4339.5346,N,07922.7625,W,0.00,334.08,270417,,,A*7E
$GPVTG,334.08,T,,M,0.00,N,0.00,K,A*31
$GPGGA,212450.000,4339.5346,N,07922.7625,W,1,8,1.07,102.4,M,-35.1,M,,*6C
$GPGLL,4339.5346,N,07922.7625,W,212450.000,A,A*4A
$GPGSA,A,3,13,30,11,28,01,07,08,17,,,,,1.38,1.07,0.88*0D
$GPGSV,4,1,13,30,66,230,42,11,63,084,40,28,59,313,34,01,56,123,32*74
$GPGSV,4,2,13,07,39,174,44,51,32,217,37,17,31,245,41,08,29,057,40*70
$GPGSV,4,3,13,13,18,295,20,19,08,239,,22,05,115,,15,03,325,*70
$GPGSV,4,4,13,10,01,028,*41
$GPRMC,212450.000,A,4339.5346,N,07922.7625,W,0.00,334.08,270417,,,A*76
$GPVTG,334.08,T,,M,0.00,N,0.00,K,A*31
$GPGGA,212451.000,4339.5346,N,07922.7625,W,1,8,1.07,102.4,M,-35.1,M,,*6D
$GPGLL,4339.5346,N,07922.7625,W,212451.000,A,A*4B
$GPGSA,A,3,13,30,11,28,01,07,08,17,,,,,1.38,1.07,0.88*0D
$GPGSV,4,1,13,30,65,229,43,11,63,084,40,28,59,313,33,01,56,123,39*72
$GPGSV,4,2,13,07,39,174,45,51,32,217,36,17,31,245,42,08,29,057,39*7D
$GPGSV,4,3,13,13,18,295,23,19,08,239,,22,05,115,,15,03,325,*73
$GPGSV,4,4,13,10,01,028,*41
$GPRMC,212451.000,A,4339.5346,N,07922.7625,W,0.00,334.08,270417,,,A*77
$GPVTG,334.08,T,,M,0.00,N,0.00,K,A*31
$GPGGA,212452.000,4339.5346,N,07922.7625,W,1,8,1.07,102.4,M,-35.1,M,,*6E
$GPGLL,4339.5346,N,07922.7625,W,212452.000,A,A*48
$GPGSA,A,3,13,30,11,28,01,07,08,17,,,,,1.38,1.07,0.88*0D
$GPGSV,4,1,13,30,65,229,42,11,63,084,40,28,59,313,25,01,56,123,38*75
$GPGSV,4,2,13,07,39,174,45,51,32,217,36,17,31,245,41,08,29,057,38*7F
$GPGSV,4,3,13,13,18,295,23,19,08,239,,22,05,115,,15,03,325,*73
$GPGSV,4,4,13,10,01,028,*41
$GPRMC,212452.000,A,4339.5346,N,07922.7625,W,0.00,334.08,270417,,,A*74
$GPVTG,334.08,T,,M,0.00,N,0.00,K,A*31
$GPGGA,212453.000,4339.5346,N,07922.7625,W,1,7,1.25,102.4,M,-35.1,M,,*60
$GPGLL,4339.5346,N,07922.7625,W,212453.000,A,A*49
$GPGSA,A,3,30,11,28,01,07,08,17,,,,,,1.55,1.25,0.91*0C
$GPGSV,4,1,13,30,65,229,42,11,63,084,40,28,59,313,27,01,56,123,38*77
$GPGSV,4,2,13,07,39,174,45,51,32,217,37,17,31,245,41,08,29,057,37*71
$GPGSV,4,3,13,13,18,295,,19,08,239,,22,05,115,,15,03,325,*72
$GPGSV,4,4,13,10,01,028,*41
$GPRMC,212453.000,A,4339.5346,N,07922.7625,W,0.00,334.08,270417,,,A*75
$GPVTG,334.08,T,,M,0.00,N,0.00,K,A*31
$GPGGA,212454.000,4339.5346,N,07922.7625,W,1,8,1.07,102.4,M,-35.1,M,,*68
$GPGLL,4339.5346,N,07922.7625,W,212454.000,A,A*4E
$GPGSA,A,3,13,30,11,28,01,07,08,17,,,,,1.38,1.07,0.88*0D
$GPGSV,4,1,13,30,65,229,41,11,63,084,40,28,59,313,27,01,56,123,38*74
$GPGSV,4,2,13,07,39,174,45,51,32,217,36,17,31,245,40,08,29,057,37*71
$GPGSV,4,3,13,13,18,295,36,19,08,239,,22,05,115,25,15,03,325,*70
$GPGSV,4,4,13,10,01,028,*41
$GPRMC,212454.000,A,4339.5346,N,07922.7625,W,0.00,334.08,270417,,,A*72
$GPVTG,334.08,T,,M,0.00,N,0.00,K,A*31
$GPGGA,212455.000,4339.5346,N,07922.7625,W,1,8,1.07,102.4,M,-35.1,M,,*69
$GPGLL,4339.5346,N,07922.7625,W,212455.000,A,A*4F
$GPGSA,A,3,13,30,11,28,01,07,08,17,,,,,1.38,1.07,0.88*0D
$GPGSV,4,1,13,30,65,229,42,11,63,084,40,28,59,313,28,01,56,123,39*79
$GPGSV,4,2,13,07,39,174,45,51,32,217,37,17,31,245,41,08,29,057,39*7F
$GPGSV,4,3,13,13,18,295,34,19,08,239,,22,05,115,25,15,03,325,*72
$GPGSV,4,4,13,10,01,028,*41
$GPRMC,212455.000,A,4339.5346,N,07922.7625,W,0.00,334.08,270417,,,A*73
$GPVTG,334.08,T,,M,0.00,N,0.00,K,A*31
$GPGGA,212456.000,4339.5346,N,07922.7625,W,1,8,1.07,102.4,M,-35.1,M,,*6A
$GPGLL,4339.5346,N,07922.7625,W,212456.000,A,A*4C
$GPGSA,A,3,13,30,11,28,01,07,08,17,,,,,1.38,1.07,0.88*0D
$GPGSV,4,1,13,30,65,229,43,11,63,084,40,28,59,313,29,01,56,123,39*79
$GPGSV,4,2,13,07,39,174,44,51,32,217,38,17,31,245,42,08,29,057,41*7D
$GPGSV,4,3,13,13,18,295,35,19,08,239,,22,05,115,29,15,03,325,*7F
$GPGSV,4,4,13,10,01,028,*41
$GPRMC,212456.000,A,4339.5346,N,07922.7625,W,0.00,334.08,270417,,,A*70
$GPVTG,334.08,T,,M,0.00,N,0.00,K,A*31
$GPGGA,212457.000,4339.5365,N,07922.7540,W,1,8,1.07,98.6,M,-35.1,M,,*5A
$GPGLL,4339.5365,N,07922.7540,W,212457.000,A,A*4C
$GPGSA,A,3,13,30,11,28,01,07,08,17,,,,,1.38,1.07,0.88*0D
$GPGSV,4,1,13,30,65,229,43,11,63,084,40,28,59,313,30,01,56,123,39*71
$GPGSV,4,2,13,07,39,174,43,51,32,217,37,17,31,245,42,08,29,057,40*74
$GPGSV,4,3,13,13,18,295,32,19,08,239,,22,05,115,27,15,03,325,*76
$GPGSV,4,4,13,10,01,028,*41
$GPRMC,212457.000,A,4339.5365,N,07922.7540,W,3.08,82.99,270417,,,A*4D
$GPVTG,82.99,T,,M,3.08,N,5.71,K,A*0F
$GPGGA,212458.000,4339.5364,N,07922.7527,W,1,8,1.07,98.5,M,-35.1,M,,*56
$GPGLL,4339.5364,N,07922.7527,W,212458.000,A,A*43
$GPGSA,A,3,13,30,11,28,01,07,08,17,,,,,1.38,1.07,0.88*0D
$GPGSV,4,1,13,30,65,229,42,11,63,084,40,28,59,313,30,01,56,123,37*7E
$GPGSV,4,2,13,07,39,174,43,51,32,217,38,17,31,245,41,08,29,057,39*76
$GPGSV,4,3,13,13,18,295,30,19,08,239,,22,05,115,27,15,03,325,*74
$GPGSV,4,4,13,10,01,028,*41
$GPRMC,212458.000,A,4339.5364,N,07922.7527,W,3.52,85.55,270417,,,A*4A
$GPVTG,85.55,T,,M,3.52,N,6.52,K,A*05
$GPGGA,212459.000,4339.5363,N,07922.7512,W,1,8,1.07,98.6,M,-35.1,M,,*55
$GPGLL,4339.5363,N,07922.7512,W,212459.000,A,A*43
$GPGSA,A,3,13,30,11,28,01,07,08,17,,,,,1.38,1.07,0.88*0D
$GPGSV,4,1,13,30,65,229,42,11,63,084,40,28,59,313,30,01,56,123,35*7C
$GPGSV,4,2,13,07,39,174,43,51,32,217,39,17,31,245,42,08,29,057,38*75
$GPGSV,4,3,13,13,18,295,31,19,08,239,,22,05,115,25,15,03,325,*77
$GPGSV,4,4,13,10,01,028,*41
$GPRMC,212459.000,A,4339.5363,N,07922.7512,W,3.82,87.35,270417,,,A*43
$GPVTG,87.35,T,,M,3.82,N,7.09,K,A*03
$GPGGA,212500.000,4339.5363,N,07922.7501,W,1,8,1.07,98.3,M,-35.1,M,,*5F
$GPGLL,4339.5363,N,07922.7501,W,212500.000,A,A*4C
$GPGSA,A,3,13,30,11,28,01,07,08,17,,,,,1.38,1.07,0.88*0D
$GPGSV,4,1,13,30,65,229,42,11,63,084,40,28,59,313,30,01,56,123,34*7D
$GPGSV,4,2,13,07,39,174,43,51,32,217,40,17,31,245,42,08,29,057,38*7B
$GPGSV,4,3,13,13,18,295,31,19,08,239,,22,05,115,23,15,03,325,*71
$GPGSV,4,4,13,10,01,028,20*43
$GPRMC,212500.000,A,4339.5363,N,07922.7501,W,0.00,86.35,270417,,,A*44
$GPVTG,86.35,T,,M,0.00,N,0.00,K,A*05
$GPGGA,212501.000,4339.5364,N,07922.7493,W,1,8,1.07,98.2,M,-35.1,M,,*52
$GPGLL,4339.5364,N,07922.7493,W,212501.000,A,A*40
$GPGSA,A,3,13,30,11,28,01,07,08,17,,,,,1.38,1.07,0.88*0D
$GPGSV,4,1,13,30,65,229,42,11,63,084,40,28,59,313,30,01,56,123,41*7F
$GPGSV,4,2,13,07,39,174,43,51,32,217,39,17,31,245,42,08,29,057,38*75
$GPGSV,4,3,13,13,18,295,30,19,08,239,,22,05,115,22,15,03,325,*71
$GPGSV,4,4,13,10,01,028,19*49
$GPRMC,212501.000,A,4339.5364,N,07922.7493,W,0.00,87.80,270417,,,A*47
$GPVTG,87.80,T,,M,0.00,N,0.00,K,A*0A
$GPGGA,212502.000,4339.5363,N,07922.7487,W,1,8,1.07,98.3,M,-35.1,M,,*52
$GPGLL,4339.5363,N,07922.7487,W,212502.000,A,A*41
$GPGSA,A,3,13,30,11,28,01,07,08,17,,,,,1.38,1.07,0.88*0D
$GPGSV,4,1,13,30,65,229,43,11,63,084,40,28,59,313,31,01,56,123,40*7E
$GPGSV,4,2,13,07,39,174,43,51,32,217,39,17,31,245,42,08,29,057,29*75
$GPGSV,4,3,13,13,18,295,34,19,08,239,,22,05,115,20,15,03,325,*77
$GPGSV,4,4,13,10,01,028,33*41
$GPRMC,212502.000,A,4339.5363,N,07922.7487,W,0.00,88.76,270417,,,A*40
$GPVTG,88.76,T,,M,0.00,N,0.00,K,A*0C
$GPGGA,212503.000,4339.5363,N,07922.7487,W,1,8,1.07,98.3,M,-35.1,M,,*53
$GPGLL,4339.5363,N,07922.7487,W,212503.000,A,A*40
$GPGSA,A,3,13,30,11,28,01,07,08,17,,,,,1.38,1.07,0.88*0D
$GPGSV,4,1,13,30,65,229,44,11,63,084,41,28,59,313,33,01,56,123,40*7A
$GPGSV,4,2,13,07,38,174,43,51,32,217,41,17,31,245,42,08,29,057,28*7A
$GPGSV,4,3,13,13,18,295,34,19,08,239,,22,05,115,19,15,03,325,*7D
$GPGSV,4,4,13,10,01,028,34*46
$GPRMC,212503.000,A,4339.5363,N,07922.7487,W,0.00,88.76,270417,,,A*41
$GPVTG,88.76,T,,M,0.00,N,0.00,K,A*0C
$GPGGA,212504.000,4339.5363,N,07922.7487,W,1,8,1.07,98.3,M,-35.1,M,,*54
$GPGLL,4339.5363,N,07922.7487,W,212504.000,A,A*47
$GPGSA,A,3,30,11,28,01,07,08,17,13,,,,,1.38,1.07,0.88*0D
$GPGSV,4,1,13,30,65,229,45,11,63,084,41,28,59,313,43,01,56,123,40*7C
$GPGSV,4,2,13,07,38,174,42,51,32,217,41,17,31,245,42,08,28,057,27*75
$GPGSV,4,3,13,13,18,295,31,19,08,239,,22,05,115,18,15,03,325,*79
$GPGSV,4,4,13,10,01,028,34*46
$GPRMC,212504.000,A,4339.5363,N,07922.7487,W,0.00,88.76,270417,,,A*46
$GPVTG,88.76,T,,M,0.00,N,0.00,K,A*0C
$GPGGA,212505.000,4339.5363,N,07922.7487,W,1,7,1.25,98.3,M,-35.1,M,,*5A
$GPGLL,4339.5363,N,07922.7487,W,212505.000,A,A*46
$GPGSA,A,3,30,11,28,01,07,08,17,,,,,,1.55,1.25,0.91*0C
$GPGSV,4,1,13,30,65,229,45,11,63,084,42,28,59,313,42,01,56,123,40*7E
$GPGSV,4,2,13,07,38,174,42,51,32,217,42,17,31,245,43,08,28,057,26*76
$GPGSV,4,3,13,13,18,295,30,19,08,239,,22,05,115,17,15,03,325,*77
$GPGSV,4,4,13,10,01,028,34*46
$GPRMC,212505.000,A,4339.5363,N,07922.7487,W,0.00,88.76,270417,,,A*47
$GPVTG,88.76,T,,M,0.00,N,0.00,K,A*0C
$GPGGA,212506.000,4339.5363,N,07922.7487,W,2,7,1.25,98.3,M,-35.1,M,0000,0000*5A
$GPGLL,4339.5363,N,07922.7487,W,212506.000,A,D*40
$GPGSA,A,3,30,11,28,01,07,08,17,,,,,,1.55,1.25,0.91*0C
$GPGSV,4,1,13,30,65,229,45,11,63,084,42,28,59,313,41,01,56,123,40*7D
$GPGSV,4,2,13,07,38,174,42,51,32,217,43,17,31,245,44,08,28,057,26*70
$GPGSV,4,3,13,13,18,295,33,19,08,239,,22,05,115,16,15,03,325,*75
$GPGSV,4,4,13,10,01,028,34*46
$GPRMC,212506.000,A,4339.5363,N,07922.7487,W,0.00,88.76,270417,,,D*41
$GPVTG,88.76,T,,M,0.00,N,0.00,K,D*09
$GPGGA,212507.000,4339.5363,N,07922.7487,W,2,7,1.25,98.3,M,-35.1,M,0000,0000*5B
$GPGLL,4339.5363,N,07922.7487,W,212507.000,A,D*41
$GPGSA,A,3,30,11,28,01,07,08,17,,,,,,1.55,1.25,0.91*0C
$GPGSV,4,1,13,30,65,229,45,11,63,084,42,28,59,313,41,01,56,123,40*7D
$GPGSV,4,2,13,07,38,174,42,51,32,217,43,17,31,245,44,08,28,057,27*71
$GPGSV,4,3,13,13,18,295,33,19,08,239,,22,05,115,16,15,03,325,*75
$GPGSV,4,4,13,10,01,028,34*46
$GPRMC,212507.000,A,4339.5363,N,07922.7487,W,0.00,88.76,270417,,,D*40
$GPVTG,88.76,T,,M,0.00,N,0.00,K,D*09
$GPGGA,212508.000,4339.5363,N,07922.7487,W,2,7,1.25,98.3,M,-35.1,M,0000,0000*54
$GPGLL,4339.5363,N,07922.7487,W,212508.000,A,D*4E
$GPGSA,A,3,30,11,28,01,07,08,17,,,,,,1.55,1.25,0.91*0C
$GPGSV,4,1,13,30,65,229,46,11,63,084,42,28,59,313,41,01,56,123,40*7E
$GPGSV,4,2,13,07,38,174,42,51,32,217,43,17,31,245,44,08,28,057,27*71
$GPGSV,4,3,13,13,18,295,35,19,08,239,,22,05,115,15,15,03,325,*70
$GPGSV,4,4,13,10,01,028,33*41
$GPRMC,212508.000,A,4339.5363,N,07922.7487,W,0.00,88.76,270417,,,D*4F
$GPVTG,88.76,T,,M,0.00,N,0.00,K,D*09
$GPGGA,212509.000,4339.5363,N,07922.7487,W,2,7,1.25,98.3,M,-35.1,M,0000,0000*55
$GPGLL,4339.5363,N,07922.7487,W,212509.000,A,D*4F
$GPGSA,A,3,30,11,28,01,07,08,17,,,,,,1.55,1.25,0.91*0C
$GPGSV,4,1,13,30,65,229,46,11,63,084,42,28,59,313,41,01,56,123,39*70
$GPGSV,4,2,13,07,38,174,41,51,32,217,43,17,31,245,44,08,28,057,26*73
$GPGSV,4,3,13,13,17,295,35,19,08,239,,22,05,115,16,15,03,325,*7C
$GPGSV,4,4,13,10,01,028,32*40
$GPRMC,212509.000,A,4339.5363,N,07922.7487,W,0.00,88.76,270417,,,D*4E
$GPVTG,88.76,T,,M,0.00,N,0.00,K,D*09
$GPGGA,212510.000,4339.5363,N,07922.7487,W,2,7,1.25,98.3,M,-35.1,M,0000,0000*5D
$GPGLL,4339.5363,N,07922.7487,W,212510.000,A,D*47
$GPGSA,A,3,30,11,28,01,07,08,17,,,,,,1.55,1.25,0.91*0C
$GPGSV,4,1,13,30,65,229,46,11,63,084,42,28,59,313,41,01,56,123,39*70
$GPGSV,4,2,13,07,38,174,41,51,32,217,44,17,31,245,45,08,28,057,28*7B
$GPGSV,4,3,13,13,17,295,36,19,08,239,,22,05,115,16,15,03,325,*7F
$GPGSV,4,4,13,10,01,028,32*40
$GPRMC,212510.000,A,4339.5363,N,07922.7487,W,0.00,88.76,270417,,,D*46
$GPVTG,88.76,T,,M,0.00,N,0.00,K,D*09
$GPGGA,212511.000,4339.5363,N,07922.7487,W,2,7,1.25,98.3,M,-35.1,M,0000,0000*5C
$GPGLL,4339.5363,N,07922.7487,W,212511.000,A,D*46
$GPGSA,A,3,30,11,28,01,07,08,17,,,,,,1.55,1.25,0.91*0C
$GPGSV,4,1,13,30,65,229,46,11,63,084,42,28,59,313,41,01,56,123,39*70
$GPGSV,4,2,13,07,38,174,41,51,32,217,44,17,31,245,45,08,28,057,29*7A
$GPGSV,4,3,13,13,17,295,36,19,08,239,,22,05,115,17,15,03,325,*7E
$GPGSV,4,4,13,10,01,028,33*41
$GPRMC,212511.000,A,4339.5363,N,07922.7487,W,0.00,88.76,270417,,,D*47
$GPVTG,88.76,T,,M,0.00,N,0.00,K,D*09
$GPGGA,212512.000,4339.5363,N,07922.7487,W,2,7,1.25,98.3,M,-35.1,M,0000,0000*5F
$GPGLL,4339.5363,N,07922.7487,W,212512.000,A,D*45
$GPGSA,A,3,30,11,28,01,07,08,17,,,,,,1.55,1.25,0.91*0C
$GPGSV,4,1,13,30,65,229,46,11,63,084,42,28,59,313,41,01,56,123,39*70
$GPGSV,4,2,13,07,38,174,41,51,32,217,44,17,31,245,45,08,28,057,29*7A
$GPGSV,4,3,13,13,17,295,37,19,08,239,,22,05,115,19,15,03,325,*71
$GPGSV,4,4,13,10,01,028,33*41
$GPRMC,212512.000,A,4339.5363,N,07922.7487,W,0.00,88.76,270417,,,D*44
$GPVTG,88.76,T,,M,0.00,N,0.00,K,D*09
$GPGGA,212513.000,4339.5363,N,07922.7487,W,2,7,1.25,98.3,M,-35.1,M,0000,0000*5E
$GPGLL,4339.5363,N,07922.7487,W,212513.000,A,D*44
$GPGSA,A,3,30,11,28,01,07,08,17,,,,,,1.55,1.25,0.91*0C
$GPGSV,4,1,13,30,65,229,46,11,63,084,42,28,59,313,41,01,56,123,38*71
$GPGSV,4,2,13,07,38,174,40,51,32,217,44,17,31,245,45,08,28,057,29*7B
$GPGSV,4,3,13,13,17,295,35,19,08,239,,22,05,115,20,15,03,325,*79
$GPGSV,4,4,13,10,01,028,33*41
$GPRMC,212513.000,A,4339.5363,N,07922.7487,W,0.00,88.76,270417,,,D*45
$GPVTG,88.76,T,,M,0.00,N,0.00,K,D*09
$GPGGA,212514.000,4339.5363,N,07922.7487,W,2,7,1.25,98.3,M,-35.1,M,0000,0000*59
$GPGLL,4339.5363,N,07922.7487,W,212514.000,A,D*43
$GPGSA,A,3,30,11,28,01,07,08,17,,,,,,1.55,1.25,0.91*0C
$GPGSV,4,1,13,30,65,229,46,11,63,084,42,28,59,313,41,01,56,123,37*7E
$GPGSV,4,2,13,07,38,174,40,51,32,217,44,17,31,245,45,08,28,057,29*7B
$GPGSV,4,3,13,13,17,295,36,19,08,239,,22,05,115,20,15,03,325,*7A
$GPGSV,4,4,13,10,01,028,33*41
$GPRMC,212514.000,A,4339.5363,N,07922.7487,W,0.00,88.76,270417,,,D*42
$GPVTG,88.76,T,,M,0.00,N,0.00,K,D*09
$GPGGA,212515.000,4339.5363,N,07922.7487,W,2,7,1.25,98.3,M,-35.1,M,0000,0000*58
$GPGLL,4339.5363,N,07922.7487,W,212515.000,A,D*42
$GPGSA,A,3,30,11,28,01,07,08,17,,,,,,1.55,1.25,0.91*0C
$GPGSV,4,1,13,30,65,229,46,11,63,084,42,28,59,313,41,01,56,123,37*7E
$GPGSV,4,2,13,07,38,174,40,51,32,217,44,17,31,245,45,08,28,057,29*7B
$GPGSV,4,3,13,13,17,295,37,19,08,240,,22,05,115,20,15,03,325,*75
$GPGSV,4,4,13,10,01,028,33*41
$GPRMC,212515.000,A,4339.5363,N,07922.7487,W,0.00,88.76,270417,,,D*43
$GPVTG,88.76,T,,M,0.00,N,0.00,K,D*09
$GPGGA,212516.000,4339.5363,N,07922.7487,W,2,7,1.25,98.3,M,-35.1,M,0000,0000*5B
$GPGLL,4339.5363,N,07922.7487,W,212516.000,A,D*41
$GPGSA,A,3,30,11,28,01,07,08,17,,,,,,1.55,1.25,0.91*0C
$GPGSV,4,1,13,30,65,229,46,11,63,084,42,28,59,313,41,01,56,123,37*7E
$GPGSV,4,2,13,07,38,174,40,51,32,217,44,17,31,245,45,08,28,057,29*7B
$GPGSV,4,3,13,13,17,295,37,19,08,240,,22,05,115,20,15,03,325,*75
$GPGSV,4,4,13,10,01,028,33*41
$GPRMC,212516.000,A,4339.5363,N,07922.7487,W,0.00,88.76,270417,,,D*40
$GPVTG,88.76,T,,M,0.00,N,0.00,K,D*09
$GPGGA,212517.000,4339.5363,N,07922.7487,W,2,8,1.25,98.3,M,-35.1,M,0000,0000*55
$GPGLL,4339.5363,N,07922.7487,W,212517.000,A,D*40
$GPGSA,A,3,13,30,11,28,01,07,08,17,,,,,2.53,1.25,2.20*03
$GPGSV,4,1,13,30,65,229,45,11,63,084,42,28,59,313,41,01,56,123,37*7D
$GPGSV,4,2,13,07,38,174,40,51,32,217,43,17,31,245,45,08,28,057,29*7C
$GPGSV,4,3,13,13,17,295,38,19,08,240,,22,05,115,20,15,03,325,17*7C
$GPGSV,4,4,13,10,01,028,32*40
$GPRMC,212517.000,A,4339.5363,N,07922.7487,W,0.00,88.76,270417,,,D*41
$GPVTG,88.76,T,,M,0.00,N,0.00,K,D*09
$GPGGA,212518.000,4339.5363,N,07922.7487,W,2,8,1.25,98.3,M,-35.1,M,0000,0000*5A
$GPGLL,4339.5363,N,07922.7487,W,212518.000,A,D*4F
$GPGSA,A,3,13,30,11,28,01,07,08,17,,,,,2.53,1.25,2.20*03
$GPGSV,4,1,13,30,65,229,45,11,63,084,42,28,59,313,41,01,56,123,37*7D
$GPGSV,4,2,13,07,38,174,40,51,32,217,43,17,31,245,45,08,28,057,29*7C
$GPGSV,4,3,13,13,17,295,38,19,08,240,,22,05,115,21,15,03,325,17*7D
$GPGSV,4,4,13,10,01,028,32*40
$GPRMC,212518.000,A,4339.5363,N,07922.7487,W,0.00,88.76,270417,,,D*4E
$GPVTG,88.76,T,,M,0.00,N,0.00,K,D*09
$GPGGA,212519.000,4339.5363,N,07922.7487,W,2,8,1.25,98.3,M,-35.1,M,0000,0000*5B
$GPGLL,4339.5363,N,07922.7487,W,212519.000,A,D*4E
$GPGSA,A,3,13,30,11,28,01,07,08,17,,,,,2.53,1.25,2.20*03
$GPGSV,4,1,13,30,65,229,45,11,63,084,42,28,59,313,41,01,56,123,38*72
$GPGSV,4,2,13,07,38,174,40,51,32,217,43,17,31,245,45,08,28,057,29*7C
$GPGSV,4,3,13,13,17,295,38,19,08,240,,22,05,115,22,15,03,325,17*7E
$GPGSV,4,4,13,10,01,028,32*40
$GPRMC,212519.000,A,4339.5363,N,07922.7487,W,0.00,88.76,270417,,,D*4F
$GPVTG,88.76,T,,M,0.00,N,0.00,K,D*09
$GPGGA,212520.000,4339.5363,N,07922.7487,W,2,8,1.25,98.3,M,-35.1,M,0000,0000*51
$GPGLL,4339.5363,N,07922.7487,W,212520.000,A,D*44
$GPGSA,A,3,13,30,11,28,01,07,08,17,,,,,2.53,1.25,2.20*03
$GPGSV,4,1,13,30,65,229,45,11,63,084,42,28,59,313,41,01,56,123,38*72
$GPGSV,4,2,13,07,38,174,40,51,32,217,43,17,31,245,45,08,28,057,29*7C
$GPGSV,4,3,13,13,17,295,38,19,08,240,,22,05,115,23,15,03,325,17*7F
$GPGSV,4,4,13,10,01,028,32*40
$GPRMC,212520.000,A,4339.5363,N,07922.7487,W,0.00,88.76,270417,,,D*45
$GPVTG,88.76,T,,M,0.00,N,0.00,K,D*09
$GPGGA,212521.000,4339.5363,N,07922.7487,W,2,7,1.25,98.3,M,-35.1,M,0000,0000*5F
$GPGLL,4339.5363,N,07922.7487,W,212521.000,A,D*45
$GPGSA,A,3,30,11,28,01,07,08,17,,,,,,2.53,1.25,2.20*01
$GPGSV,4,1,13,30,65,229,45,11,63,084,42,28,59,313,41,01,56,123,37*7D
$GPGSV,4,2,13,07,38,174,40,51,32,217,43,17,31,245,45,08,28,057,28*7D
$GPGSV,4,3,13,13,17,295,38,19,08,240,,22,05,115,23,15,03,325,17*7F
$GPGSV,4,4,13,10,01,028,31*43
$GPRMC,212521.000,A,4339.5363,N,07922.7487,W,0.00,88.76,270417,,,D*44
$GPVTG,88.76,T,,M,0.00,N,0.00,K,D*09
$GPGGA,212522.000,4339.5363,N,07922.7487,W,2,7,1.25,98.3,M,-35.1,M,0000,0000*5C
$GPGLL,4339.5363,N,07922.7487,W,212522.000,A,D*46
$GPGSA,A,3,30,11,28,01,07,08,17,,,,,,2.53,1.25,2.20*01
$GPGSV,4,1,13,30,65,229,45,11,63,084,42,28,59,313,41,01,56,123,37*7D
$GPGSV,4,2,13,07,38,174,40,51,32,217,43,17,31,245,45,08,28,057,28*7D
$GPGSV,4,3,13,13,17,295,38,19,08,240,,22,05,115,23,15,03,325,17*7F
$GPGSV,4,4,13,10,01,028,31*43
$GPRMC,212522.000,A,4339.5363,N,07922.7487,W,0.00,88.76,270417,,,D*47
$GPVTG,88.76,T,,M,0.00,N,0.00,K,D*09
$GPGGA,212523.000,4339.5363,N,07922.7487,W,2,7,1.25,98.3,M,-35.1,M,0000,0000*5D
$GPGLL,4339.5363,N,07922.7487,W,212523.000,A,D*47
$GPGSA,A,3,30,11,28,01,07,08,17,,,,,,2.53,1.25,2.19*0B
$GPGSV,4,1,13,30,65,229,45,11,63,084,43,28,59,313,41,01,56,123,37*7C
$GPGSV,4,2,13,07,38,174,40,51,32,217,43,17,31,245,45,08,28,057,27*72
$GPGSV,4,3,13,13,17,295,39,19,08,240,,22,05,115,24,15,03,325,17*79
$GPGSV,4,4,13,10,01,028,32*40
$GPRMC,212523.000,A,4339.5363,N,07922.7487,W,0.00,88.76,270417,,,D*46
$GPVTG,88.76,T,,M,0.00,N,0.00,K,D*09
$GPGGA,212524.000,4339.5363,N,07922.7487,W,2,7,1.25,98.3,M,-35.1,M,0000,0000*5A
$GPGLL,4339.5363,N,07922.7487,W,212524.000,A,D*40
$GPGSA,A,3,30,11,28,01,07,08,17,,,,,,2.53,1.25,2.20*01
$GPGSV,4,1,13,30,65,229,45,11,63,084,43,28,60,313,41,01,56,123,38*79
$GPGSV,4,2,13,07,38,174,40,51,32,217,43,17,31,245,45,08,28,057,28*7D
$GPGSV,4,3,13,13,17,295,39,19,08,240,,22,05,115,24,15,03,325,17*79
$GPGSV,4,4,13,10,01,028,32*40
$GPRMC,212524.000,A,4339.5363,N,07922.7487,W,0.00,88.76,270417,,,D*41
$GPVTG,88.76,T,,M,0.00,N,0.00,K,D*09
$GPGGA,212525.000,4339.5363,N,07922.7487,W,2,8,1.25,98.3,M,-35.1,M,0000,0000*54
$GPGLL,4339.5363,N,07922.7487,W,212525.000,A,D*41
$GPGSA,A,3,13,30,11,28,01,07,08,17,,,,,2.53,1.25,2.20*03
$GPGSV,4,1,13,30,65,229,45,11,63,084,43,28,60,313,41,01,56,123,38*79
$GPGSV,4,2,13,07,38,174,41,51,32,217,43,17,31,245,45,08,28,057,28*7C
$GPGSV,4,3,13,13,17,295,39,19,08,240,,22,05,115,23,15,03,325,17*7E
$GPGSV,4,4,13,10,01,028,32*40
$GPRMC,212525.000,A,4339.5363,N,07922.7487,W,0.00,88.76,270417,,,D*40
$GPVTG,88.76,T,,M,0.00,N,0.00,K,D*09
$GPGGA,212526.000,4339.5363,N,07922.7487,W,2,8,1.25,98.3,M,-35.1,M,0000,0000*57
$GPGLL,4339.5363,N,07922.7487,W,212526.000,A,D*42
$GPGSA,A,3,13,30,11,28,01,07,08,17,,,,,2.53,1.25,2.20*03
$GPGSV,4,1,13,30,65,229,44,11,63,084,43,28,60,313,42,01,56,123,38*7B
$GPGSV,4,2,13,07,38,174,41,51,32,217,43,17,31,245,45,08,28,057,27*73
$GPGSV,4,3,13,13,17,295,39,19,08,240,,22,05,115,22,15,03,325,16*7E
$GPGSV,4,4,13,10,01,028,32*40
$GPRMC,212526.000,A,4339.5363,N,07922.7487,W,0.00,88.76,270417,,,D*43
$GPVTG,88.76,T,,M,0.00,N,0.00,K,D*09
$GPGGA,212527.000,4339.5363,N,07922.7487,W,2,7,1.25,98.3,M,-35.1,M,0000,0000*59
$GPGLL,4339.5363,N,07922.7487,W,212527.000,A,D*43
$GPGSA,A,3,30,11,28,01,07,08,17,,,,,,2.53,1.25,2.20*01
$GPGSV,4,1,13,30,65,229,44,11,63,084,43,28,60,313,42,01,56,123,38*7B
$GPGSV,4,2,13,07,38,174,42,51,32,217,44,17,31,245,45,08,28,057,27*77
$GPGSV,4,3,13,13,17,295,,19,08,240,,22,05,115,20,15,03,325,15*75
$GPGSV,4,4,13,10,01,028,31*43
$GPRMC,212527.000,A,4339.5363,N,07922.7487,W,0.00,88.76,270417,,,D*42
$GPVTG,88.76,T,,M,0.00,N,0.00,K,D*09
$GPGGA,212528.000,4339.5363,N,07922.7487,W,2,7,1.25,98.3,M,-35.1,M,0000,0000*56
$GPGLL,4339.5363,N,07922.7487,W,212528.000,A,D*4C
$GPGSA,A,3,30,11,28,01,07,08,17,,,,,,2.53,1.25,2.19*0B
$GPGSV,4,1,13,30,65,229,44,11,63,084,35,28,60,313,41,01,56,123,37*76
$GPGSV,4,2,13,07,38,174,42,51,32,217,44,17,31,245,45,08,28,057,27*77
$GPGSV,4,3,13,13,17,295,,19,08,240,,22,05,115,19,15,03,325,15*7F
$GPGSV,4,4,13,10,01,028,30*42
$GPRMC,212528.000,A,4339.5363,N,07922.7487,W,0.00,88.76,270417,,,D*4D
$GPVTG,88.76,T,,M,0.00,N,0.00,K,D*09
$GPGGA,212529.000,4339.5363,N,07922.7487,W,2,7,1.25,98.3,M,-35.1,M,0000,0000*57
$GPGLL,4339.5363,N,07922.7487,W,212529.000,A,D*4D
$GPGSA,A,3,30,11,28,01,07,08,17,,,,,,2.53,1.25,2.19*0B
$GPGSV,4,1,13,30,65,229,43,11,63,084,27,28,60,313,41,01,56,123,35*70
$GPGSV,4,2,13,07,38,174,41,51,32,217,42,17,31,245,37,08,28,057,26*76
$GPGSV,4,3,13,13,17,295,,19,08,240,,22,05,115,18,15,03,325,*7A
$GPGSV,4,4,13,10,01,028,30*42
$GPRMC,212529.000,A,4339.5363,N,07922.7487,W,0.00,88.76,270417,,,D*4C
$GPVTG,88.76,T,,M,0.00,N,0.00,K,D*09
$GPGGA,212530.000,4339.5363,N,07922.7487,W,2,7,1.25,98.3,M,-35.1,M,0000,0000*5F
$GPGLL,4339.5363,N,07922.7487,W,212530.000,A,D*45
$GPGSA,A,3,30,11,28,01,07,08,17,,,,,,2.53,1.25,2.19*0B
$GPGSV,4,1,13,30,65,229,43,11,63,084,26,28,60,313,41,01,56,123,34*70
$GPGSV,4,2,13,07,38,174,41,51,32,217,41,17,31,245,38,08,28,057,23*7F
$GPGSV,4,3,13,13,17,295,34,19,08,240,,22,05,115,18,15,03,325,*7D
$GPGSV,4,4,13,10,01,028,19*49
$GPRMC,212530.000,A,4339.5363,N,07922.7487,W,0.00,88.76,270417,,,D*44
$GPVTG,88.76,T,,M,0.00,N,0.00,K,D*09
$GPGGA,212531.000,4339.5363,N,07922.7487,W,2,8,1.25,98.3,M,-35.1,M,0000,0000*51
$GPGLL,4339.5363,N,07922.7487,W,212531.000,A,D*44
$GPGSA,A,3,30,11,28,01,07,08,17,13,,,,,2.53,1.25,2.20*03
$GPGSV,4,1,13,30,65,229,42,11,63,084,23,28,60,313,41,01,56,123,34*74
$GPGSV,4,2,13,07,38,174,42,51,32,217,40,17,31,245,39,08,28,057,25*7A
$GPGSV,4,3,13,13,17,295,38,19,08,240,,22,05,115,17,15,03,325,*7E
$GPGSV,4,4,13,10,01,028,20*43
$GPRMC,212531.000,A,4339.5363,N,07922.7487,W,0.00,88.76,270417,,,D*45
$GPVTG,88.76,T,,M,0.00,N,0.00,K,D*09
$GPGGA,212532.000,4339.5363,N,07922.7487,W,2,7,1.25,98.3,M,-35.1,M,0000,0000*5D
$GPGLL,4339.5363,N,07922.7487,W,212532.000,A,D*47
$GPGSA,A,3,30,11,28,01,07,08,17,,,,,,1.55,1.25,0.91*0C
$GPGSV,4,1,13,30,65,229,42,11,63,084,23,28,60,313,41,01,56,122,35*74
$GPGSV,4,2,13,07,38,174,43,51,32,217,39,17,31,245,39,08,28,057,23*73
$GPGSV,4,3,13,13,17,295,,19,08,240,,22,05,115,17,15,03,325,*75
$GPGSV,4,4,13,10,01,028,21*42
$GPRMC,212532.000,A,4339.5363,N,07922.7487,W,0.00,88.76,270417,,,D*46
$GPVTG,88.76,T,,M,0.00,N,0.00,K,D*09
$GPGGA,212533.000,4339.5363,N,07922.7487,W,2,8,1.07,98.3,M,-35.1,M,0000,0000*53
$GPGLL,4339.5363,N,07922.7487,W,212533.000,A,D*46
$GPGSA,A,3,30,11,28,01,07,08,17,13,,,,,1.38,1.07,0.88*0D
$GPGSV,4,1,13,30,65,229,41,11,63,084,23,28,60,313,41,01,56,122,35*77
$GPGSV,4,2,13,07,38,174,44,51,32,217,39,17,31,245,39,08,28,057,22*75
$GPGSV,4,3,13,13,17,295,34,19,08,240,,22,05,115,17,15,03,325,*72
$GPGSV,4,4,13,10,01,028,22*41
